[
  {
    "id": "B0FFL9QYC8",
    "name": "万象汇公寓",
    "district": "安徽省安庆市宜秀区",
    "adcode": "340811",
    "location": [117.094334, 30.540093],
    "address": "祥和路与朝阳路交叉口东北60米",
    "typecode": "100200",
    "city": [],
    "item": {
      "community_name": "万象公寓",
      "region": "宜秀区",
      "city": "安庆",
      "state": "安徽省",
      "postal_code": "246000",
      "year_built": 2015,
      "community_type": "普通住宅",
      "property_management_company": null,
      "description": null,
      "created_by": "meida",
      "updated_by": "meida",
      "created_at": "2025-07-03 09:15:42",
      "updated_at": "2025-07-03 09:15:42"
    }
  },
  {
    "id": "B022C04AVW",
    "name": "万豪逸景",
    "district": "安徽省安庆市迎江区",
    "adcode": "340802",
    "location": [117.045471, 30.502089],
    "address": "建设路28号",
    "typecode": "120302",
    "city": [],
    "item": {
      "community_name": "万豪逸景",
      "region": "迎江区",
      "city": "安庆",
      "state": "安徽省",
      "postal_code": "246000",
      "year_built": 2013,
      "community_type": "普通住宅",
      "property_management_company": null,
      "description": null,
      "created_by": "meida",
      "updated_by": "meida",
      "created_at": "2025-05-07 11:23:30",
      "updated_at": "2025-05-07 11:23:30"
    }
  },
  {
    "id": "B022C05S37",
    "name": "世纪名流",
    "district": "安徽省安庆市宜秀区",
    "adcode": "340811",
    "location": [117.065416, 30.546624],
    "address": "湖心北路78号",
    "typecode": "120302",
    "city": [],
    "item": {
      "community_name": "世纪名流",
      "region": "宜秀区",
      "city": "安庆",
      "state": "安徽省",
      "postal_code": "246000",
      "year_built": null,
      "community_type": "普通住宅",
      "property_management_company": null,
      "description": null,
      "created_by": "meida",
      "updated_by": "admin",
      "created_at": "2024-10-09 08:20:57",
      "updated_at": "2025-05-06 01:07:41"
    }
  },
  {
    "id": "B0FFFAL9T0",
    "name": "东方天韵",
    "district": "安徽省安庆市宜秀区",
    "adcode": "340811",
    "location": [117.086982, 30.534275],
    "address": "天柱山东路南",
    "typecode": "120302",
    "city": [],
    "item": {
      "community_name": "东方天韵",
      "region": "宜秀区",
      "city": "安庆",
      "state": "安徽省",
      "postal_code": "246000",
      "year_built": 2012,
      "community_type": "普通住宅",
      "property_management_company": null,
      "description": null,
      "created_by": "meida",
      "updated_by": "钱平香",
      "created_at": "2025-03-03 02:20:13",
      "updated_at": "2025-07-10 09:51:40"
    }
  },
  {
    "id": "B0FFI8H1TT",
    "name": "东方虹城农贸市场(菱建小区西区店)",
    "district": "安徽省安庆市宜秀区",
    "adcode": "340811",
    "location": [117.064146, 30.540923],
    "address": "菱北街道开发区回祥路菱建小区39栋东方菜市场",
    "typecode": "060703",
    "city": [],
    "item": {
      "community_name": "东方虹城",
      "region": "宜秀区",
      "city": "安庆",
      "state": "安徽省",
      "postal_code": "246000",
      "year_built": 2009,
      "community_type": "普通住宅",
      "property_management_company": "虹城物业",
      "description": "封闭小区    有商品房   有还建房房",
      "created_by": "meida",
      "updated_by": "meida",
      "created_at": "2024-10-13 02:47:28",
      "updated_at": "2024-10-13 02:47:28"
    }
  },
  {
    "id": "B0FFG4ZYFW",
    "name": "东湖一品",
    "district": "安徽省安庆市宜秀区",
    "adcode": "340811",
    "location": [117.074403, 30.53031],
    "address": "元山路6号",
    "typecode": "120302",
    "city": [],
    "item": {
      "community_name": "东湖一品",
      "region": "宜秀区",
      "city": "安庆",
      "state": "安徽省",
      "postal_code": "246000",
      "year_built": null,
      "community_type": "普通住宅",
      "property_management_company": null,
      "description": null,
      "created_by": "meida",
      "updated_by": "meida",
      "created_at": "2025-04-26 07:08:09",
      "updated_at": "2025-04-26 07:08:09"
    }
  },
  {
    "id": "B0FFK89QWF",
    "name": "东苑小区",
    "district": "安徽省安庆市迎江区",
    "adcode": "340802",
    "location": [117.060904, 30.509361],
    "address": "少年宫东路与程墩路交叉口西南120米",
    "typecode": "120302",
    "city": [],
    "item": {
      "community_name": "东苑小区",
      "region": "迎江区",
      "city": "安庆",
      "state": "安徽省",
      "postal_code": "246000",
      "year_built": null,
      "community_type": "普通住宅",
      "property_management_company": null,
      "description": null,
      "created_by": "meida",
      "updated_by": "meida",
      "created_at": "2025-02-16 07:12:55",
      "updated_at": "2025-02-16 07:12:55"
    }
  },
  {
    "id": "B0FFHOV90Z",
    "name": "中宜·香榭园",
    "district": "安徽省安庆市宜秀区",
    "adcode": "340811",
    "location": [117.054073, 30.547421],
    "address": "中兴大道",
    "typecode": "120302",
    "city": [],
    "item": {
      "community_name": "中宜卡法香谢园",
      "region": "大观区",
      "city": "安庆",
      "state": "安徽省",
      "postal_code": "246000",
      "year_built": null,
      "community_type": "普通住宅",
      "property_management_company": null,
      "description": null,
      "created_by": "meida",
      "updated_by": "meida",
      "created_at": "2025-03-18 01:36:57",
      "updated_at": "2025-03-18 01:36:57"
    }
  },
  {
    "id": "B0FFL813AB",
    "name": "中宜·时尚苑",
    "district": "安徽省安庆市宜秀区",
    "adcode": "340811",
    "location": [117.060444, 30.544757],
    "address": "花亭湖路与宜煌路交叉口东20米",
    "typecode": "120302",
    "city": [],
    "item": {
      "community_name": "中宜时尚苑",
      "region": "宜秀区",
      "city": "安庆",
      "state": "安徽省",
      "postal_code": "246000",
      "year_built": null,
      "community_type": "普通住宅",
      "property_management_company": null,
      "description": "多层带电梯洋房",
      "created_by": "meida",
      "updated_by": "meida",
      "created_at": "2024-12-19 08:48:16",
      "updated_at": "2024-12-19 08:48:16"
    }
  },
  {
    "id": "B0I3D51ZL8",
    "name": "中海·都汇滨江一期",
    "district": "安徽省安庆市迎江区",
    "adcode": "340802",
    "location": [117.106538, 30.512998],
    "address": "晴岚路",
    "typecode": "120302",
    "city": [],
    "item": {
      "community_name": "中海一期",
      "region": "迎江区",
      "city": "安庆",
      "state": "安徽省",
      "postal_code": "246000",
      "year_built": null,
      "community_type": "普通住宅",
      "property_management_company": null,
      "description": "新小区  高档小区",
      "created_by": "meida",
      "updated_by": "meida",
      "created_at": "2025-04-23 06:26:44",
      "updated_at": "2025-04-23 06:26:44"
    }
  },
  {
    "id": "B022C01HZU",
    "name": "丹桂花园(盛唐湾路)",
    "district": "安徽省安庆市宜秀区",
    "adcode": "340811",
    "location": [117.071464, 30.535554],
    "address": "盛唐湾路16号",
    "typecode": "120302",
    "city": [],
    "item": {
      "community_name": "丹桂花园",
      "region": "宜秀区",
      "city": "安庆",
      "state": "安徽省",
      "postal_code": "246000",
      "year_built": null,
      "community_type": "普通住宅",
      "property_management_company": null,
      "description": null,
      "created_by": "meida",
      "updated_by": "meida",
      "created_at": "2024-10-31 09:40:07",
      "updated_at": "2024-10-31 09:40:07"
    }
  },
  {
    "id": "B022C0SPV1",
    "name": "书香一品",
    "district": "安徽省安庆市宜秀区",
    "adcode": "340811",
    "location": [117.092002, 30.53771],
    "address": "天柱山东路116号",
    "typecode": "120302",
    "city": [],
    "item": {
      "community_name": "书香一品",
      "region": "宜秀区",
      "city": "安庆",
      "state": "安徽省",
      "postal_code": "246000",
      "year_built": 2018,
      "community_type": "普通住宅",
      "property_management_company": null,
      "description": "封闭小区",
      "created_by": "meida",
      "updated_by": "meida",
      "created_at": "2024-10-26 10:13:35",
      "updated_at": "2024-10-26 10:13:35"
    }
  },
  {
    "id": "B022C05XG9",
    "name": "云志苑",
    "district": "安徽省安庆市宜秀区",
    "adcode": "340811",
    "location": [117.053974, 30.544542],
    "address": "中兴大街125正西方向90米",
    "typecode": "120302",
    "city": [],
    "item": {
      "community_name": "云志苑",
      "region": "宜秀区",
      "city": "安庆",
      "state": "安徽省",
      "postal_code": "246000",
      "year_built": 2008,
      "community_type": "住宅",
      "property_management_company": null,
      "description": "封闭小区",
      "created_by": "蒋丽芳",
      "updated_by": "蒋丽芳",
      "created_at": "2024-09-27 02:57:13",
      "updated_at": "2024-09-27 02:57:13"
    }
  },
  {
    "id": "B022C0S9MP",
    "name": "人民新村",
    "district": "安徽省安庆市迎江区",
    "adcode": "340802",
    "location": [117.057345, 30.505371],
    "address": "人民路",
    "typecode": "120302",
    "city": [],
    "item": {
      "community_name": "人民新村",
      "region": "迎江区",
      "city": "安庆",
      "state": "安徽省",
      "postal_code": "246000",
      "year_built": 1992,
      "community_type": "普通住宅",
      "property_management_company": null,
      "description": null,
      "created_by": "meida",
      "updated_by": "meida",
      "created_at": "2025-07-08 11:02:12",
      "updated_at": "2025-07-08 11:02:12"
    }
  },
  {
    "id": "B0IATX6VAD",
    "name": "任家坡街",
    "district": "安徽省安庆市迎江区",
    "adcode": "340802",
    "location": [117.039666, 30.503499],
    "address": [],
    "typecode": "190301",
    "city": [],
    "item": {
      "community_name": "任家坡",
      "region": "大观区",
      "city": "安庆",
      "state": "安徽省",
      "postal_code": "246000",
      "year_built": 1999,
      "community_type": "普通住宅",
      "property_management_company": null,
      "description": "四中学区房",
      "created_by": "蒋丽芳",
      "updated_by": "meida",
      "created_at": "2024-10-06 03:26:02",
      "updated_at": "2025-05-07 01:39:46"
    }
  },
  {
    "id": "B0FFG14WQY",
    "name": "余桥新村",
    "district": "安徽省安庆市迎江区",
    "adcode": "340802",
    "location": [117.133451, 30.526527],
    "address": "新河路与港口路交叉口西南380米",
    "typecode": "120302",
    "city": [],
    "item": {
      "community_name": "余桥新村",
      "region": "迎江区",
      "city": "安庆",
      "state": "安徽省",
      "postal_code": "246000",
      "year_built": 2017,
      "community_type": "住宅",
      "property_management_company": null,
      "description": "还建小区   有多层有高层  隔壁就是余桥小学",
      "created_by": "meida",
      "updated_by": "meida",
      "created_at": "2024-09-04 05:03:19",
      "updated_at": "2024-09-04 05:03:19"
    }
  },
  {
    "id": "B0FFJ8T988",
    "name": "健康公寓",
    "district": "安徽省安庆市迎江区",
    "adcode": "340802",
    "location": [117.048304, 30.509733],
    "address": "健康路与铁佛庵巷交叉口北20米",
    "typecode": "120302",
    "city": [],
    "item": {
      "community_name": "健康公寓",
      "region": "大观区",
      "city": "安庆",
      "state": "安徽省",
      "postal_code": "246000",
      "year_built": 2003,
      "community_type": "普通住宅",
      "property_management_company": null,
      "description": null,
      "created_by": "meida",
      "updated_by": "meida",
      "created_at": "2025-06-04 06:57:48",
      "updated_at": "2025-06-04 06:57:48"
    }
  },
  {
    "id": "B0KUNSD6X8",
    "name": "光彩大市场1期",
    "district": "安徽省安庆市宜秀区",
    "adcode": "340811",
    "location": [117.072599, 30.544233],
    "address": "深圳路与雷池路交叉口东北160米",
    "typecode": "060700",
    "city": [],
    "item": {
      "community_name": "光彩大市场一期",
      "region": "宜秀区",
      "city": "安庆",
      "state": "安徽省",
      "postal_code": "246000",
      "year_built": null,
      "community_type": "商住两用",
      "property_management_company": "南翔物业",
      "description": "商铺",
      "created_by": "meida",
      "updated_by": "meida",
      "created_at": "2025-01-15 10:53:24",
      "updated_at": "2025-01-15 10:53:24"
    }
  },
  {
    "id": "B0FFGA5HYH",
    "name": "光彩大市场3期",
    "district": "安徽省安庆市宜秀区",
    "adcode": "340811",
    "location": [117.072506, 30.537966],
    "address": "南京西路与北京路交叉口东20米",
    "typecode": "060700",
    "city": [],
    "item": {
      "community_name": "光彩大市场三期",
      "region": "宜秀区",
      "city": "安庆",
      "state": "安徽省",
      "postal_code": "246000",
      "year_built": 2003,
      "community_type": "住宅",
      "property_management_company": "南翔物业",
      "description": null,
      "created_by": "meida",
      "updated_by": "meida",
      "created_at": "2024-12-07 03:27:01",
      "updated_at": "2024-12-07 03:27:01"
    }
  },
  {
    "id": "B0FFG1XJOM",
    "name": "光彩大市场2期",
    "district": "安徽省安庆市宜秀区",
    "adcode": "340811",
    "location": [117.0726, 30.541069],
    "address": "深圳路与天柱山西路交叉口东北180米",
    "typecode": "061208",
    "city": [],
    "item": {
      "community_name": "光彩大市场二期",
      "region": "宜秀区",
      "city": "安庆",
      "state": "安徽省",
      "postal_code": "246000",
      "year_built": 2003,
      "community_type": "商住两用",
      "property_management_company": null,
      "description": null,
      "created_by": "meida",
      "updated_by": "meida",
      "created_at": "2025-05-22 08:43:42",
      "updated_at": "2025-05-22 08:43:42"
    }
  },
  {
    "id": "B022C05VGH",
    "name": "光彩商务花园",
    "district": "安徽省安庆市宜秀区",
    "adcode": "340811",
    "location": [117.079877, 30.540861],
    "address": "天柱山东路",
    "typecode": "120301",
    "city": [],
    "item": {
      "community_name": "光彩商务花园",
      "region": "宜秀区",
      "city": "安庆",
      "state": "安徽省",
      "postal_code": "246000",
      "year_built": 2007,
      "community_type": "别墅",
      "property_management_company": "南翔物业",
      "description": "1-3层的别墅",
      "created_by": "meida",
      "updated_by": "meida",
      "created_at": "2025-03-07 07:10:54",
      "updated_at": "2025-07-18 01:34:37"
    }
  },
  {
    "id": "B0FFGAAZ2W",
    "name": "光彩大市场4期D区",
    "district": "安徽省安庆市宜秀区",
    "adcode": "340811",
    "location": [117.079034, 30.538416],
    "address": "纬四街与纬四路交叉口西南200米",
    "typecode": "120302|060600",
    "city": [],
    "item": {
      "community_name": "光彩大市场四期",
      "region": "宜秀区",
      "city": "安庆",
      "state": "安徽省",
      "postal_code": "246000",
      "year_built": 2013,
      "community_type": "普通住宅",
      "property_management_company": "南翔物业",
      "description": null,
      "created_by": "meida",
      "updated_by": "meida",
      "created_at": "2025-04-23 05:22:31",
      "updated_at": "2025-04-23 05:22:31"
    }
  },
  {
    "id": "B0I1XKJN3B",
    "name": "公交公司宿舍3栋",
    "district": "安徽省安庆市宜秀区",
    "adcode": "340811",
    "location": [117.05852, 30.533819],
    "address": "菱湖北路与湖心北路交叉口西北200米",
    "typecode": "190403",
    "city": [],
    "item": {
      "community_name": "公交宿舍",
      "region": "宜秀区",
      "city": "安庆",
      "state": "安徽省",
      "postal_code": "246000",
      "year_built": 1997,
      "community_type": "普通住宅",
      "property_management_company": null,
      "description": null,
      "created_by": "meida",
      "updated_by": "meida",
      "created_at": "2025-02-05 08:12:07",
      "updated_at": "2025-02-05 08:12:07"
    }
  },
  {
    "id": "B0FFGQDNEE",
    "name": "关岳庙街",
    "district": "安徽省安庆市大观区",
    "adcode": "340803",
    "location": [117.036764, 30.511362],
    "address": [],
    "typecode": "190301",
    "city": [],
    "item": {
      "community_name": "关岳庙街",
      "region": "宜秀区",
      "city": "安庆",
      "state": "安徽省",
      "postal_code": "246000",
      "year_built": 1998,
      "community_type": "普通住宅",
      "property_management_company": null,
      "description": null,
      "created_by": "meida",
      "updated_by": "meida",
      "created_at": "2025-05-24 08:12:18",
      "updated_at": "2025-05-24 08:12:18"
    }
  },
  {
    "id": "B022C0081B",
    "name": "兴利达大厦",
    "district": "安徽省安庆市大观区",
    "adcode": "340803",
    "location": [117.042145, 30.515907],
    "address": "集贤南路",
    "typecode": "120201",
    "city": [],
    "item": {
      "community_name": "兴利达大厦",
      "region": "大观区",
      "city": "安庆",
      "state": "安徽省",
      "postal_code": "246000",
      "year_built": 2003,
      "community_type": "普通住宅",
      "property_management_company": null,
      "description": null,
      "created_by": "meida",
      "updated_by": "meida",
      "created_at": "2025-06-04 05:25:19",
      "updated_at": "2025-06-04 05:25:19"
    }
  },
  {
    "id": "B0FFFQ0J2B",
    "name": "凯旋尊邸",
    "district": "安徽省安庆市宜秀区",
    "adcode": "340811",
    "location": [117.095908, 30.533861],
    "address": "天柱山东路与独秀大道交汇处",
    "typecode": "120302",
    "city": [],
    "item": {
      "community_name": "凯旋尊邸",
      "region": "宜秀区",
      "city": "安庆",
      "state": "安徽省",
      "postal_code": "246000",
      "year_built": 2012,
      "community_type": "普通住宅",
      "property_management_company": null,
      "description": null,
      "created_by": "meida",
      "updated_by": "meida",
      "created_at": "2025-05-17 07:09:37",
      "updated_at": "2025-05-17 07:09:37"
    }
  },
  {
    "id": "B0FFHK5KHB",
    "name": "辉隆·北城秀里",
    "district": "安徽省安庆市宜秀区",
    "adcode": "340811",
    "location": [116.976031, 30.620385],
    "address": "凤鸣路与天仙河路交叉口西北220米",
    "typecode": "120302",
    "city": [],
    "item": {
      "community_name": "北城秀里",
      "region": "宜秀区",
      "city": "安庆",
      "state": "安徽省",
      "postal_code": "246000",
      "year_built": 2009,
      "community_type": "普通住宅",
      "property_management_company": null,
      "description": null,
      "created_by": "钱平香",
      "updated_by": "meida",
      "created_at": "2024-09-30 04:54:46",
      "updated_at": "2024-09-30 04:58:34"
    }
  },
  {
    "id": "B0HGTS7OOH",
    "name": "北正街",
    "district": "安徽省安庆市大观区",
    "adcode": "340803",
    "location": [117.038766, 30.513565],
    "address": [],
    "typecode": "190700",
    "city": [],
    "item": {
      "community_name": "北正街",
      "region": "大观区",
      "city": "安庆",
      "state": "安徽省",
      "postal_code": "246000",
      "year_built": 1990,
      "community_type": "普通住宅",
      "property_management_company": null,
      "description": null,
      "created_by": "meida",
      "updated_by": "meida",
      "created_at": "2025-02-21 07:16:01",
      "updated_at": "2025-02-21 07:16:01"
    }
  },
  {
    "id": "B0GDHU1AFT",
    "name": "十里乡教委宿舍楼",
    "district": "安徽省安庆市宜秀区",
    "adcode": "340811",
    "location": [117.045133, 30.541595],
    "address": "黄土坑东路十六中隔壁巷子笔直走到底",
    "typecode": "120303",
    "city": [],
    "item": {
      "community_name": "十里教委宿舍",
      "region": "大观区",
      "city": "安庆",
      "state": "安徽省",
      "postal_code": "246000",
      "year_built": 1990,
      "community_type": "普通住宅",
      "property_management_company": null,
      "description": null,
      "created_by": "meida",
      "updated_by": "meida",
      "created_at": "2024-11-14 09:20:36",
      "updated_at": "2024-11-14 09:20:36"
    }
  },
  {
    "id": "B0FFM6U42R",
    "name": "十里春天",
    "district": "安徽省安庆市宜秀区",
    "adcode": "340811",
    "location": [117.025922, 30.555062],
    "address": "集贤北路518-13十里春风美发工作室",
    "typecode": "120302",
    "city": [],
    "item": {
      "community_name": "十里春天",
      "region": "大观区",
      "city": "安庆",
      "state": "安徽省",
      "postal_code": "246000",
      "year_built": 2022,
      "community_type": "普通住宅",
      "property_management_company": null,
      "description": null,
      "created_by": "meida",
      "updated_by": "meida",
      "created_at": "2025-03-20 05:24:29",
      "updated_at": "2025-03-20 05:24:29"
    }
  },
  {
    "id": "B022C0T094",
    "name": "红旗千和花园",
    "district": "安徽省安庆市迎江区",
    "adcode": "340802",
    "location": [117.084039, 30.513232],
    "address": "华中东路309号正东方向110米",
    "typecode": "120302",
    "city": [],
    "item": {
      "community_name": "千和花园",
      "region": "迎江区",
      "city": "安庆",
      "state": "安徽省",
      "postal_code": "246000",
      "year_built": null,
      "community_type": "普通住宅",
      "property_management_company": null,
      "description": null,
      "created_by": "meida",
      "updated_by": "meida",
      "created_at": "2025-04-29 02:01:51",
      "updated_at": "2025-04-29 02:01:51"
    }
  },
  {
    "id": "B0FFJIIGS6",
    "name": "花亭北村",
    "district": "安徽省安庆市大观区",
    "adcode": "340803",
    "location": [117.0463, 30.53353],
    "address": "菱湖北路与花亭路交叉口西240米",
    "typecode": "120302",
    "city": [],
    "item": {
      "community_name": "华亭北村",
      "region": "大观区",
      "city": "安庆",
      "state": "安徽省",
      "postal_code": "246000",
      "year_built": 1990,
      "community_type": "普通住宅",
      "property_management_company": null,
      "description": null,
      "created_by": "meida",
      "updated_by": "meida",
      "created_at": "2025-04-04 03:09:37",
      "updated_at": "2025-04-04 03:09:37"
    }
  },
  {
    "id": "B0FFK7VOMA",
    "name": "高花花亭南村小区",
    "district": "安徽省安庆市大观区",
    "adcode": "340803",
    "location": [117.04604, 30.531406],
    "address": "集贤南路与石化四路交叉口东北260米",
    "typecode": "120302",
    "city": [],
    "item": {
      "community_name": "华亭南村",
      "region": "大观区",
      "city": "安庆",
      "state": "安徽省",
      "postal_code": "246000",
      "year_built": 1985,
      "community_type": "普通住宅",
      "property_management_company": null,
      "description": "石化一中学区",
      "created_by": "meida",
      "updated_by": "meida",
      "created_at": "2025-02-05 03:21:19",
      "updated_at": "2025-02-05 03:21:19"
    }
  },
  {
    "id": "B022C0T552",
    "name": "金大地·华茂1958",
    "district": "安徽省安庆市大观区",
    "adcode": "340803",
    "location": [117.049614, 30.521077],
    "address": "双岗路50号",
    "typecode": "120302",
    "city": [],
    "item": {
      "community_name": "华茂1958",
      "region": "大观区",
      "city": "安庆",
      "state": "安徽省",
      "postal_code": "246000",
      "year_built": 2017,
      "community_type": "普通住宅",
      "property_management_company": null,
      "description": null,
      "created_by": "meida",
      "updated_by": "meida",
      "created_at": "2024-11-14 05:07:20",
      "updated_at": "2025-07-16 08:07:45"
    }
  },
  {
    "id": "B022C01KL6",
    "name": "华茂新村",
    "district": "安徽省安庆市大观区",
    "adcode": "340803",
    "location": [117.049066, 30.533412],
    "address": "花亭路193号",
    "typecode": "120302",
    "city": [],
    "item": {
      "community_name": "华茂新村",
      "region": "大观区",
      "city": "安庆",
      "state": "安徽省",
      "postal_code": "246000",
      "year_built": 2003,
      "community_type": "普通住宅",
      "property_management_company": null,
      "description": null,
      "created_by": "meida",
      "updated_by": "meida",
      "created_at": "2025-07-15 06:14:21",
      "updated_at": "2025-07-15 06:14:21"
    }
  },
  {
    "id": "B022C0RLBS",
    "name": "南园山庄",
    "district": "安徽省安庆市大观区",
    "adcode": "340803",
    "location": [117.042402, 30.525154],
    "address": "集贤南路163号",
    "typecode": "120302",
    "city": [],
    "item": {
      "community_name": "南园山庄",
      "region": "大观区",
      "city": "安庆",
      "state": "安徽省",
      "postal_code": "246000",
      "year_built": null,
      "community_type": "普通住宅",
      "property_management_company": null,
      "description": null,
      "created_by": "meida",
      "updated_by": "meida",
      "created_at": "2025-03-03 01:08:42",
      "updated_at": "2025-03-03 01:08:42"
    }
  },
  {
    "id": "B0FFHPCDFJ",
    "name": "博雅花苑",
    "district": "安徽省安庆市宜秀区",
    "adcode": "340811",
    "location": [117.095169, 30.542634],
    "address": "迎宾东路与C-8二号路交叉口西南180米",
    "typecode": "120302",
    "city": [],
    "item": {
      "community_name": "博雅花苑",
      "region": "宜秀区",
      "city": "安庆",
      "state": "安徽省",
      "postal_code": "246000",
      "year_built": 2018,
      "community_type": "普通住宅",
      "property_management_company": null,
      "description": null,
      "created_by": "meida",
      "updated_by": "meida",
      "created_at": "2024-11-10 08:40:49",
      "updated_at": "2024-11-10 08:40:49"
    }
  },
  {
    "id": "B0FFG3D969",
    "name": "印象江南(迎宾东路)",
    "district": "安徽省安庆市宜秀区",
    "adcode": "340811",
    "location": [117.092066, 30.542794],
    "address": "迎宾东路与朝阳路交汇处西南角",
    "typecode": "120302",
    "city": [],
    "item": {
      "community_name": "印象江南",
      "region": "宜秀区",
      "city": "安庆",
      "state": "安徽省",
      "postal_code": "246000",
      "year_built": 2012,
      "community_type": "普通住宅",
      "property_management_company": null,
      "description": null,
      "created_by": "meida",
      "updated_by": "meida",
      "created_at": "2025-05-11 02:19:07",
      "updated_at": "2025-05-11 02:19:07"
    }
  },
  {
    "id": "B0FFG0GCWR",
    "name": "东王台畅东小区",
    "district": "山西省晋城市城区",
    "adcode": "140502",
    "location": [112.905626, 35.560948],
    "address": "畅安路与中心街交叉口东160米",
    "typecode": "120302",
    "city": [],
    "item": {
      "community_name": "厂东小区",
      "region": "大观区",
      "city": "安庆",
      "state": "安徽省",
      "postal_code": "246000",
      "year_built": 2003,
      "community_type": "商住两用",
      "property_management_company": null,
      "description": null,
      "created_by": "meida",
      "updated_by": "meida",
      "created_at": "2024-10-12 06:39:25",
      "updated_at": "2024-10-12 06:39:25"
    }
  },
  {
    "id": "B0FFGQEYT2",
    "name": "双井街",
    "district": "安徽省安庆市迎江区",
    "adcode": "340802",
    "location": [117.044449, 30.510223],
    "address": [],
    "typecode": "190301",
    "city": [],
    "item": {
      "community_name": "双井街",
      "region": "迎江区",
      "city": "安庆",
      "state": "安徽省",
      "postal_code": "246000",
      "year_built": 2000,
      "community_type": "普通住宅",
      "property_management_company": null,
      "description": null,
      "created_by": "meida",
      "updated_by": "meida",
      "created_at": "2025-03-07 02:34:20",
      "updated_at": "2025-03-07 02:34:20"
    }
  },
  {
    "id": "B0FFG16T0Y",
    "name": "叶祠东苑",
    "district": "安徽省安庆市宜秀区",
    "adcode": "340811",
    "location": [117.085842, 30.542302],
    "address": "迎宾东路115号",
    "typecode": "120302",
    "city": [],
    "item": {
      "community_name": "叶祠东苑",
      "region": "宜秀区",
      "city": "安庆",
      "state": "安徽省",
      "postal_code": "246000",
      "year_built": 2010,
      "community_type": "普通住宅",
      "property_management_company": null,
      "description": null,
      "created_by": "meida",
      "updated_by": "meida",
      "created_at": "2025-02-21 07:08:23",
      "updated_at": "2025-02-21 07:08:23"
    }
  },
  {
    "id": "B0FFG22BJ1",
    "name": "叶祠南苑",
    "district": "安徽省安庆市宜秀区",
    "adcode": "340811",
    "location": [117.082221, 30.533305],
    "address": "天柱山东路与官圣公路交叉口南340米",
    "typecode": "120302",
    "city": [],
    "item": {
      "community_name": "叶祠南苑",
      "region": "宜秀区",
      "city": "安庆",
      "state": "安徽省",
      "postal_code": "246000",
      "year_built": null,
      "community_type": "普通住宅",
      "property_management_company": null,
      "description": null,
      "created_by": "meida",
      "updated_by": "meida",
      "created_at": "2025-02-16 08:00:13",
      "updated_at": "2025-02-16 08:00:13"
    }
  },
  {
    "id": "B022C0S0X8",
    "name": "吉祥家园中宜苑",
    "district": "安徽省安庆市宜秀区",
    "adcode": "340811",
    "location": [117.072886, 30.534332],
    "address": "裕庆路10号",
    "typecode": "120302",
    "city": [],
    "item": {
      "community_name": "吉祥中宜苑",
      "region": "宜秀区",
      "city": "安庆",
      "state": "安徽省",
      "postal_code": "246000",
      "year_built": 2004,
      "community_type": "普通住宅",
      "property_management_company": null,
      "description": null,
      "created_by": "meida",
      "updated_by": "meida",
      "created_at": "2025-02-21 06:55:48",
      "updated_at": "2025-02-21 06:55:48"
    }
  },
  {
    "id": "B0FFHPF3OK",
    "name": "吉祥家园",
    "district": "安徽省安庆市宜秀区",
    "adcode": "340811",
    "location": [117.073462, 30.534959],
    "address": "盛唐湾路16-72号附近",
    "typecode": "120302",
    "city": [],
    "item": {
      "community_name": "吉祥家园",
      "region": "宜秀区",
      "city": "安庆",
      "state": "安徽省",
      "postal_code": "246000",
      "year_built": null,
      "community_type": "普通住宅",
      "property_management_company": null,
      "description": null,
      "created_by": "meida",
      "updated_by": "meida",
      "created_at": "2024-10-10 10:29:19",
      "updated_at": "2024-10-10 10:29:19"
    }
  },
  {
    "id": "B0FFF0AD20",
    "name": "同兴花园",
    "district": "安徽省安庆市宜秀区",
    "adcode": "340811",
    "location": [117.053954, 30.53506],
    "address": "中兴大街(全羊宴隔壁)",
    "typecode": "120302",
    "city": [],
    "item": {
      "community_name": "同兴花园",
      "region": "大观区",
      "city": "安庆",
      "state": "安徽省",
      "postal_code": "246000",
      "year_built": 2003,
      "community_type": "普通住宅",
      "property_management_company": null,
      "description": null,
      "created_by": "meida",
      "updated_by": "meida",
      "created_at": "2025-07-08 07:10:14",
      "updated_at": "2025-07-08 07:10:14"
    }
  },
  {
    "id": "B0FFKNRJ2D",
    "name": "同安府",
    "district": "安徽省安庆市宜秀区",
    "adcode": "340811",
    "location": [117.068354, 30.54464],
    "address": "同安路与雷池路交汇处",
    "typecode": "120302",
    "city": [],
    "item": {
      "community_name": "同安府",
      "region": "宜秀区",
      "city": "安庆",
      "state": "安徽省",
      "postal_code": "246000",
      "year_built": 2021,
      "community_type": "普通住宅",
      "property_management_company": "沁园物业",
      "description": "高档小区   电梯房   高铁站旁",
      "created_by": "meida",
      "updated_by": "meida",
      "created_at": "2024-09-02 08:23:07",
      "updated_at": "2024-09-02 08:23:07"
    }
  },
  {
    "id": "B0FFG4X25H",
    "name": "同庆小区北苑",
    "district": "安徽省安庆市宜秀区",
    "adcode": "340811",
    "location": [117.077661, 30.540794],
    "address": "龙眠山路254号",
    "typecode": "120302",
    "city": [],
    "item": {
      "community_name": "同庆北苑",
      "region": "宜秀区",
      "city": "安庆",
      "state": "安徽省",
      "postal_code": "246000",
      "year_built": 2000,
      "community_type": "普通住宅",
      "property_management_company": null,
      "description": null,
      "created_by": "meida",
      "updated_by": "meida",
      "created_at": "2024-12-29 08:31:35",
      "updated_at": "2025-06-08 03:22:30"
    }
  },
  {
    "id": "B022C0RYLA",
    "name": "同庆小区南苑",
    "district": "安徽省安庆市宜秀区",
    "adcode": "340811",
    "location": [117.078107, 30.53547],
    "address": "龙眠山路",
    "typecode": "120302",
    "city": [],
    "item": {
      "community_name": "同庆南苑",
      "region": "宜秀区",
      "city": "安庆",
      "state": "安徽省",
      "postal_code": "246000",
      "year_built": 2000,
      "community_type": "普通住宅",
      "property_management_company": null,
      "description": "还建房  证件齐全",
      "created_by": "meida",
      "updated_by": "meida",
      "created_at": "2024-10-10 10:17:36",
      "updated_at": "2024-10-10 10:17:36"
    }
  },
  {
    "id": "B0FFGSB775",
    "name": "吴嘴小区",
    "district": "安徽省安庆市宜秀区",
    "adcode": "340811",
    "location": [117.070984, 30.556525],
    "address": "青园农机城正对面",
    "typecode": "120302",
    "city": [],
    "item": {
      "community_name": "吴嘴小区",
      "region": "宜秀区",
      "city": "安庆",
      "state": "安徽省",
      "postal_code": "246000",
      "year_built": null,
      "community_type": "普通住宅",
      "property_management_company": null,
      "description": null,
      "created_by": "meida",
      "updated_by": "meida",
      "created_at": "2024-11-26 06:57:46",
      "updated_at": "2024-11-26 06:57:46"
    }
  },
  {
    "id": "B0FFIQ58IZ",
    "name": "新城吾悦华府二期",
    "district": "安徽省安庆市迎江区",
    "adcode": "340802",
    "location": [117.074014, 30.509797],
    "address": "华中西路",
    "typecode": "120302",
    "city": [],
    "item": {
      "community_name": "吾悦华府",
      "region": "迎江区",
      "city": "安庆",
      "state": "安徽省",
      "postal_code": "246000",
      "year_built": 2016,
      "community_type": "普通住宅",
      "property_management_company": null,
      "description": null,
      "created_by": "meida",
      "updated_by": "meida",
      "created_at": "2025-05-11 07:29:42",
      "updated_at": "2025-05-11 07:29:42"
    }
  },
  {
    "id": "B0FFFX4KLJ",
    "name": "吾悦广场(安庆店)",
    "district": "安徽省安庆市迎江区",
    "adcode": "340802",
    "location": [117.076254, 30.513282],
    "address": "菱湖南路1号",
    "typecode": "060101",
    "city": [],
    "item": {
      "community_name": "吾悦广场",
      "region": "迎江区",
      "city": "安庆",
      "state": "安徽省",
      "postal_code": "246000",
      "year_built": 2013,
      "community_type": "普通住宅",
      "property_management_company": null,
      "description": null,
      "created_by": "meida",
      "updated_by": "meida",
      "created_at": "2025-04-27 08:38:37",
      "updated_at": "2025-04-27 08:38:37"
    }
  },
  {
    "id": "B0FFITSBGM",
    "name": "和平苑",
    "district": "安徽省安庆市迎江区",
    "adcode": "340802",
    "location": [117.148949, 30.548698],
    "address": "和平西路与迎宾东路交叉口南约280米",
    "typecode": "120302",
    "city": [],
    "item": {
      "community_name": "和平苑",
      "region": "宜秀区",
      "city": "安庆",
      "state": "安徽省",
      "postal_code": "246000",
      "year_built": 2017,
      "community_type": "住宅",
      "property_management_company": null,
      "description": "封闭小区，",
      "created_by": "蒋丽芳",
      "updated_by": "meida",
      "created_at": "2024-10-17 09:07:48",
      "updated_at": "2025-04-04 03:06:35"
    }
  },
  {
    "id": "B0FFG4T0BF",
    "name": "和谐佳苑",
    "district": "安徽省安庆市宜秀区",
    "adcode": "340811",
    "location": [117.036458, 30.54664],
    "address": "集贤路街道集贤北路五里大修厂旁",
    "typecode": "120302",
    "city": [],
    "item": {
      "community_name": "和谐家苑",
      "region": "大观区",
      "city": "安庆",
      "state": "安徽省",
      "postal_code": "246000",
      "year_built": 2009,
      "community_type": "普通住宅",
      "property_management_company": null,
      "description": null,
      "created_by": "meida",
      "updated_by": "meida",
      "created_at": "2025-04-27 08:28:40",
      "updated_at": "2025-04-27 08:28:40"
    }
  },
  {
    "id": "",
    "name": "嘉禾东苑",
    "district": "",
    "adcode": "",
    "location": "",
    "address": [],
    "typecode": [],
    "city": [],
    "item": {
      "community_name": "嘉禾东苑",
      "region": "宜秀区",
      "city": "安庆",
      "state": "安徽省",
      "postal_code": "246000",
      "year_built": 2018,
      "community_type": "普通住宅",
      "property_management_company": null,
      "description": null,
      "created_by": "meida",
      "updated_by": "meida",
      "created_at": "2024-12-29 08:26:40",
      "updated_at": "2024-12-29 08:26:40"
    }
  },
  {
    "id": "B022C0S8FA",
    "name": "嘉禾园小区",
    "district": "安徽省安庆市宜秀区",
    "adcode": "340811",
    "location": [117.090874, 30.541066],
    "address": "文苑路176号",
    "typecode": "120302",
    "city": [],
    "item": {
      "community_name": "嘉禾园",
      "region": "宜秀区",
      "city": "安庆",
      "state": "安徽省",
      "postal_code": "246000",
      "year_built": 2009,
      "community_type": "普通住宅",
      "property_management_company": null,
      "description": null,
      "created_by": "meida",
      "updated_by": "meida",
      "created_at": "2025-04-29 02:03:50",
      "updated_at": "2025-04-29 02:03:50"
    }
  },
  {
    "id": "B0FFG3D96M",
    "name": "嘉禾至尊",
    "district": "安徽省安庆市宜秀区",
    "adcode": "340811",
    "location": [117.089426, 30.54291],
    "address": "文苑路176号-16",
    "typecode": "120302",
    "city": [],
    "item": {
      "community_name": "嘉禾至尊",
      "region": "宜秀区",
      "city": "安庆",
      "state": "安徽省",
      "postal_code": "246000",
      "year_built": 2018,
      "community_type": "普通住宅",
      "property_management_company": null,
      "description": null,
      "created_by": "meida",
      "updated_by": "meida",
      "created_at": "2024-11-06 00:57:26",
      "updated_at": "2024-11-06 00:57:26"
    }
  },
  {
    "id": "B0FFF861I2",
    "name": "四方城小区东区东区6栋",
    "district": "安徽省安庆市大观区",
    "adcode": "340803",
    "location": [117.035119, 30.508341],
    "address": "四方城街与玉虹街交叉口东北120米",
    "typecode": "190403",
    "city": [],
    "item": {
      "community_name": "四方城东区",
      "region": "大观区",
      "city": "安庆",
      "state": "安徽省",
      "postal_code": "246000",
      "year_built": 2003,
      "community_type": "普通住宅",
      "property_management_company": null,
      "description": "高崎四中双学区 ",
      "created_by": "meida",
      "updated_by": "meida",
      "created_at": "2025-02-22 01:45:56",
      "updated_at": "2025-02-22 01:45:56"
    }
  },
  {
    "id": "B0JDB5H3E3",
    "name": "回祥东村62栋",
    "district": "安徽省安庆市宜秀区",
    "adcode": "340811",
    "location": [117.066769, 30.540978],
    "address": "天柱山西路与浮山路交叉口东南60米",
    "typecode": "190403",
    "city": [],
    "item": {
      "community_name": "回祥东村",
      "region": "宜秀区",
      "city": "安庆",
      "state": "安徽省",
      "postal_code": "246000",
      "year_built": 1995,
      "community_type": "普通住宅",
      "property_management_company": null,
      "description": null,
      "created_by": "meida",
      "updated_by": "meida",
      "created_at": "2024-10-26 07:50:38",
      "updated_at": "2025-07-11 02:26:14"
    }
  },
  {
    "id": "B022C05S2G",
    "name": "回祥小区",
    "district": "安徽省安庆市宜秀区",
    "adcode": "340811",
    "location": [117.065439, 30.537141],
    "address": "回祥路98号",
    "typecode": "120302",
    "city": [],
    "item": {
      "community_name": "回祥小区",
      "region": "宜秀区",
      "city": "安庆",
      "state": "安徽省",
      "postal_code": "246000",
      "year_built": 1995,
      "community_type": "普通住宅",
      "property_management_company": "富强物业",
      "description": null,
      "created_by": "meida",
      "updated_by": "meida",
      "created_at": "2024-09-01 07:26:38",
      "updated_at": "2025-07-21 07:39:23"
    }
  },
  {
    "id": "B0JA2CEO5I",
    "name": "回祥西村27栋",
    "district": "安徽省安庆市宜秀区",
    "adcode": "340811",
    "location": [117.064495, 30.541599],
    "address": "天柱山西路与湖心北路交叉口东南160米",
    "typecode": "190403",
    "city": [],
    "item": {
      "community_name": "回祥西村",
      "region": "宜秀区",
      "city": "安庆",
      "state": "安徽省",
      "postal_code": "246000",
      "year_built": 1998,
      "community_type": "普通住宅",
      "property_management_company": null,
      "description": null,
      "created_by": "meida",
      "updated_by": "meida",
      "created_at": "2024-11-14 11:22:09",
      "updated_at": "2025-03-07 07:21:56"
    }
  },
  {
    "id": "B022C0RRY2",
    "name": "国泰商业花园",
    "district": "安徽省安庆市宜秀区",
    "adcode": "340811",
    "location": [117.06576, 30.542424],
    "address": "浮山路48正西方向120米",
    "typecode": "120302",
    "city": [],
    "item": {
      "community_name": "国泰花园",
      "region": "宜秀区",
      "city": "安庆",
      "state": "安徽省",
      "postal_code": "246000",
      "year_built": 1999,
      "community_type": "普通住宅",
      "property_management_company": null,
      "description": "干洗店隔壁",
      "created_by": "meida",
      "updated_by": "meida",
      "created_at": "2024-10-11 04:49:43",
      "updated_at": "2025-01-19 08:28:58"
    }
  },
  {
    "id": "B0JA2SLHF2",
    "name": "国瑞花苑",
    "district": "安徽省安庆市宜秀区",
    "adcode": "340811",
    "location": [117.089449, 30.537065],
    "address": "天柱山东路129号",
    "typecode": "120302",
    "city": [],
    "item": {
      "community_name": "国瑞花苑",
      "region": "宜秀区",
      "city": "安庆",
      "state": "安徽省",
      "postal_code": "246000",
      "year_built": 2012,
      "community_type": "普通住宅",
      "property_management_company": null,
      "description": null,
      "created_by": "meida",
      "updated_by": "meida",
      "created_at": "2025-05-21 01:41:17",
      "updated_at": "2025-05-21 01:41:17"
    }
  },
  {
    "id": "B0FFK8TWF7",
    "name": "圣埠小区",
    "district": "安徽省安庆市宜秀区",
    "adcode": "340811",
    "location": [117.087314, 30.5302],
    "address": "文苑路158号",
    "typecode": "120302",
    "city": [],
    "item": {
      "community_name": "圣埠小区",
      "region": "宜秀区",
      "city": "安庆",
      "state": "安徽省",
      "postal_code": "246000",
      "year_built": 2017,
      "community_type": "住宅",
      "property_management_company": null,
      "description": "还建房  纯电梯   证已办",
      "created_by": "meida",
      "updated_by": "meida",
      "created_at": "2024-09-02 01:40:09",
      "updated_at": "2024-09-02 01:40:09"
    }
  },
  {
    "id": "B0IA3KAHKZ",
    "name": "墨子巷",
    "district": "安徽省安庆市迎江区",
    "adcode": "340802",
    "location": [117.039339, 30.504632],
    "address": [],
    "typecode": "190301",
    "city": [],
    "item": {
      "community_name": "墨子巷",
      "region": "迎江区",
      "city": "安庆",
      "state": "安徽省",
      "postal_code": "246000",
      "year_built": 1995,
      "community_type": "普通住宅",
      "property_management_company": null,
      "description": null,
      "created_by": "meida",
      "updated_by": "meida",
      "created_at": "2024-11-08 07:50:12",
      "updated_at": "2024-11-08 07:50:12"
    }
  },
  {
    "id": "BZA7Q100F2",
    "name": "壕埂街",
    "district": "安徽省安庆市大观区",
    "adcode": "340803",
    "location": [117.039311, 30.517566],
    "address": [],
    "typecode": "190301",
    "city": [],
    "item": {
      "community_name": "壕梗街",
      "region": "大观区",
      "city": "安庆",
      "state": "安徽省",
      "postal_code": "246000",
      "year_built": 1984,
      "community_type": "住宅",
      "property_management_company": null,
      "description": "在同安高中旁边",
      "created_by": "meida",
      "updated_by": "meida",
      "created_at": "2025-03-07 01:28:16",
      "updated_at": "2025-03-07 01:28:16"
    }
  },
  {
    "id": "B0LAVK1PTC",
    "name": "大南门",
    "district": "安徽省安庆市潜山市",
    "adcode": "340882",
    "location": [116.573238, 30.624706],
    "address": "天柱山路与045县道交叉口东80米",
    "typecode": "990000",
    "city": [],
    "item": {
      "community_name": "大南门",
      "region": "迎江区",
      "city": "安庆",
      "state": "安徽省",
      "postal_code": "246000",
      "year_built": 1993,
      "community_type": "普通住宅",
      "property_management_company": null,
      "description": "四中学区房",
      "created_by": "meida",
      "updated_by": "钱平香",
      "created_at": "2024-10-10 10:41:38",
      "updated_at": "2025-07-08 08:07:48"
    }
  },
  {
    "id": "B0FFJ8T9MS",
    "name": "大发·融悦四季",
    "district": "安徽省安庆市宜秀区",
    "adcode": "340811",
    "location": [117.090779, 30.544564],
    "address": "迎宾东路与月池路交叉口北80米",
    "typecode": "120302",
    "city": [],
    "item": {
      "community_name": "大发 融悦四季",
      "region": "宜秀区",
      "city": "安庆",
      "state": "安徽省",
      "postal_code": "246000",
      "year_built": 2018,
      "community_type": "普通住宅",
      "property_management_company": null,
      "description": null,
      "created_by": "meida",
      "updated_by": "meida",
      "created_at": "2025-07-08 06:35:00",
      "updated_at": "2025-07-08 06:35:00"
    }
  },
  {
    "id": "B0FFI97CEH",
    "name": "大发宜景城一期",
    "district": "安徽省安庆市迎江区",
    "adcode": "340802",
    "location": [117.126207, 30.518093],
    "address": "华中东路与潜江路交叉口东400米",
    "typecode": "120302",
    "city": [],
    "item": {
      "community_name": "大发怡景城一期",
      "region": "迎江区",
      "city": "安庆",
      "state": "安徽省",
      "postal_code": "246000",
      "year_built": 2009,
      "community_type": "普通住宅",
      "property_management_company": null,
      "description": null,
      "created_by": "meida",
      "updated_by": "meida",
      "created_at": "2025-03-22 09:23:09",
      "updated_at": "2025-03-22 09:23:09"
    }
  },
  {
    "id": "B0JGLCJQ8I",
    "name": "大发宜景城三期",
    "district": "安徽省安庆市迎江区",
    "adcode": "340802",
    "location": [117.125397, 30.519817],
    "address": "华中东路与华中路交叉口北300米",
    "typecode": "120302",
    "city": [],
    "item": {
      "community_name": "大发怡景城三期",
      "region": "迎江区",
      "city": "安庆",
      "state": "安徽省",
      "postal_code": "246000",
      "year_built": 2013,
      "community_type": "普通住宅",
      "property_management_company": null,
      "description": null,
      "created_by": "meida",
      "updated_by": "meida",
      "created_at": "2025-05-07 07:11:34",
      "updated_at": "2025-05-07 07:11:34"
    }
  },
  {
    "id": "B0FFHHWBTK",
    "name": "大发宜景城2期",
    "district": "安徽省安庆市迎江区",
    "adcode": "340802",
    "location": [117.130532, 30.51911],
    "address": "皖江大道与老华中路交汇处",
    "typecode": "120302",
    "city": [],
    "item": {
      "community_name": "大发怡景城二期",
      "region": "迎江区",
      "city": "安庆",
      "state": "安徽省",
      "postal_code": "246000",
      "year_built": null,
      "community_type": "普通住宅",
      "property_management_company": "大发物业",
      "description": null,
      "created_by": "meida",
      "updated_by": "meida",
      "created_at": "2025-04-23 05:27:02",
      "updated_at": "2025-04-23 05:27:02"
    }
  },
  {
    "id": "B0FFKJE7VO",
    "name": "大发宜景城三期10幢",
    "district": "安徽省安庆市迎江区",
    "adcode": "340802",
    "location": [117.126702, 30.520639],
    "address": "华中东路与华中路交叉口北300米",
    "typecode": "190403",
    "city": [],
    "item": {
      "community_name": "大发怡景城四期",
      "region": "迎江区",
      "city": "安庆",
      "state": "安徽省",
      "postal_code": "246000",
      "year_built": 2017,
      "community_type": "普通住宅",
      "property_management_company": null,
      "description": null,
      "created_by": "meida",
      "updated_by": "meida",
      "created_at": "2025-05-07 09:08:41",
      "updated_at": "2025-05-07 09:08:41"
    }
  },
  {
    "id": "B0FFF2XE8T",
    "name": "大园小区",
    "district": "安徽省安庆市大观区",
    "adcode": "340803",
    "location": [117.046706, 30.520431],
    "address": "戏校南路北二巷与公园西路交叉口北120米",
    "typecode": "120302",
    "city": [],
    "item": {
      "community_name": "大园小区",
      "region": "大观区",
      "city": "安庆",
      "state": "安徽省",
      "postal_code": "246000",
      "year_built": 2003,
      "community_type": "普通住宅",
      "property_management_company": null,
      "description": null,
      "created_by": "meida",
      "updated_by": "meida",
      "created_at": "2025-07-05 05:48:29",
      "updated_at": "2025-07-05 05:48:29"
    }
  },
  {
    "id": "B022C0T086",
    "name": "大地·凤凰城",
    "district": "安徽省安庆市宜秀区",
    "adcode": "340811",
    "location": [116.983391, 30.616778],
    "address": "北部新城兴宜路8号(新宜秀区政府大楼旁)",
    "typecode": "120302",
    "city": [],
    "item": {
      "community_name": "大地凤凰城",
      "region": "宜秀区",
      "city": "安庆",
      "state": "安徽省",
      "postal_code": "246000",
      "year_built": 2018,
      "community_type": "普通住宅",
      "property_management_company": null,
      "description": null,
      "created_by": "meida",
      "updated_by": "meida",
      "created_at": "2025-06-15 11:26:04",
      "updated_at": "2025-06-15 11:26:04"
    }
  },
  {
    "id": "B0FFGDXFCX",
    "name": "大湖春天幼儿园",
    "district": "安徽省安庆市大观区",
    "adcode": "340803",
    "location": [117.049905, 30.53596],
    "address": "中兴大街102号英德利花园西苑",
    "typecode": "141204",
    "city": [],
    "item": {
      "community_name": "大湖春天",
      "region": "大观区",
      "city": "安庆",
      "state": "安徽省",
      "postal_code": "246000",
      "year_built": 2004,
      "community_type": "普通住宅",
      "property_management_company": null,
      "description": null,
      "created_by": "meida",
      "updated_by": "meida",
      "created_at": "2025-04-20 07:58:31",
      "updated_at": "2025-04-20 07:58:31"
    }
  },
  {
    "id": "B0FFF9JJ41",
    "name": "大观亭社区",
    "district": "安徽省安庆市大观区",
    "adcode": "340803",
    "location": [117.028323, 30.506727],
    "address": "德宽路75号",
    "typecode": "120302",
    "city": [],
    "item": {
      "community_name": "大观亭小区",
      "region": "大观区",
      "city": "安庆",
      "state": "安徽省",
      "postal_code": "246000",
      "year_built": null,
      "community_type": "普通住宅",
      "property_management_company": null,
      "description": null,
      "created_by": "meida",
      "updated_by": "meida",
      "created_at": "2025-05-17 07:31:50",
      "updated_at": "2025-05-17 07:31:50"
    }
  },
  {
    "id": "B0FFF865WD",
    "name": "大观商城1号楼",
    "district": "安徽省安庆市大观区",
    "adcode": "340803",
    "location": [117.034936, 30.504571],
    "address": "大观家居商城(玉琳路店)",
    "typecode": "190403",
    "city": [],
    "item": {
      "community_name": "大观商城",
      "region": "大观区",
      "city": "安庆",
      "state": "安徽省",
      "postal_code": "246000",
      "year_built": 1992,
      "community_type": "普通住宅",
      "property_management_company": null,
      "description": null,
      "created_by": "meida",
      "updated_by": "meida",
      "created_at": "2025-04-26 05:14:35",
      "updated_at": "2025-04-26 05:14:35"
    }
  },
  {
    "id": "B022C0RL2B",
    "name": "天一家园(棋盘山路)",
    "district": "安徽省安庆市迎江区",
    "adcode": "340802",
    "location": [117.065548, 30.508888],
    "address": "棋盘山路",
    "typecode": "120302",
    "city": [],
    "item": {
      "community_name": "天一家园",
      "region": "大观区",
      "city": "安庆",
      "state": "安徽省",
      "postal_code": "246000",
      "year_built": 2003,
      "community_type": "普通住宅",
      "property_management_company": null,
      "description": null,
      "created_by": "meida",
      "updated_by": "meida",
      "created_at": "2025-07-14 11:01:33",
      "updated_at": "2025-07-14 11:01:33"
    }
  },
  {
    "id": "B0FFHED8HV",
    "name": "天下名筑",
    "district": "安徽省安庆市迎江区",
    "adcode": "340802",
    "location": [117.126483, 30.531092],
    "address": "辉煌路与振风大道交汇处西北",
    "typecode": "120302",
    "city": [],
    "item": {
      "community_name": "天下名筑",
      "region": "迎江区",
      "city": "安庆",
      "state": "安徽省",
      "postal_code": "246000",
      "year_built": 2015,
      "community_type": "普通住宅",
      "property_management_company": null,
      "description": null,
      "created_by": "meida",
      "updated_by": "meida",
      "created_at": "2025-06-15 11:01:24",
      "updated_at": "2025-06-15 11:01:24"
    }
  },
  {
    "id": "B022C01R39",
    "name": "天宝商城",
    "district": "安徽省安庆市宜秀区",
    "adcode": "340811",
    "location": [117.072717, 30.546771],
    "address": "迎宾路20号",
    "typecode": "120302",
    "city": [],
    "item": {
      "community_name": "天宝商城",
      "region": "宜秀区",
      "city": "安庆",
      "state": "安徽省",
      "postal_code": "246000",
      "year_built": 2000,
      "community_type": "普通住宅",
      "property_management_company": "天宝物业",
      "description": "封闭小区",
      "created_by": "meida",
      "updated_by": "meida",
      "created_at": "2024-09-30 05:09:54",
      "updated_at": "2025-07-05 06:57:28"
    }
  },
  {
    "id": "B022C0094A",
    "name": "天宝新苑(迎宾西路)",
    "district": "安徽省安庆市宜秀区",
    "adcode": "340811",
    "location": [117.070419, 30.547354],
    "address": "宜秀区开发区迎宾路168号",
    "typecode": "120302",
    "city": [],
    "item": {
      "community_name": "天宝新苑",
      "region": "宜秀区",
      "city": "安庆",
      "state": "安徽省",
      "postal_code": "246000",
      "year_built": 2011,
      "community_type": "普通住宅",
      "property_management_company": null,
      "description": null,
      "created_by": "meida",
      "updated_by": "meida",
      "created_at": "2024-10-23 06:44:47",
      "updated_at": "2024-10-23 06:44:47"
    }
  },
  {
    "id": "B0I0OK0JAR",
    "name": "天柱商贸城D栋",
    "district": "安徽省安庆市宜秀区",
    "adcode": "340811",
    "location": [117.061905, 30.547867],
    "address": [],
    "typecode": "190403",
    "city": [],
    "item": {
      "community_name": "天柱商贸城",
      "region": "宜秀区",
      "city": "安庆",
      "state": "安徽省",
      "postal_code": "246000",
      "year_built": 2000,
      "community_type": "普通住宅",
      "property_management_company": null,
      "description": null,
      "created_by": "meida",
      "updated_by": "meida",
      "created_at": "2025-02-09 06:53:51",
      "updated_at": "2025-02-09 06:53:51"
    }
  },
  {
    "id": "BZA8PX003L",
    "name": "天柱山路",
    "district": "安徽省安庆市潜山市",
    "adcode": "340882",
    "location": [116.572031, 30.627972],
    "address": [],
    "typecode": "190301",
    "city": [],
    "item": {
      "community_name": "天柱山路",
      "region": "宜秀区",
      "city": "安庆",
      "state": "安徽省",
      "postal_code": "246000",
      "year_built": 2009,
      "community_type": "普通住宅",
      "property_management_company": null,
      "description": null,
      "created_by": "meida",
      "updated_by": "meida",
      "created_at": "2025-06-08 03:04:50",
      "updated_at": "2025-06-08 03:04:50"
    }
  },
  {
    "id": "B0FFG4TXMB",
    "name": "天柱栖庭",
    "district": "安徽省安庆市宜秀区",
    "adcode": "340811",
    "location": [117.028004, 30.553777],
    "address": "安庆市开发区十魏路",
    "typecode": "120302",
    "city": [],
    "item": {
      "community_name": "天柱栖庭",
      "region": "宜秀区",
      "city": "安庆",
      "state": "安徽省",
      "postal_code": "246000",
      "year_built": 2013,
      "community_type": "普通住宅",
      "property_management_company": null,
      "description": null,
      "created_by": "meida",
      "updated_by": "meida",
      "created_at": "2025-06-14 11:56:31",
      "updated_at": "2025-06-14 11:56:31"
    }
  },
  {
    "id": "B0FFKGZ3D7",
    "name": "天盟·阅江山",
    "district": "安徽省安庆市宜秀区",
    "adcode": "340811",
    "location": [117.075536, 30.529192],
    "address": "菱湖北路与元山路交叉口东200米",
    "typecode": "120302",
    "city": [],
    "item": {
      "community_name": "天盟 。阅江山",
      "region": "宜秀区",
      "city": "安庆",
      "state": "安徽省",
      "postal_code": "246000",
      "year_built": 2022,
      "community_type": "普通住宅",
      "property_management_company": null,
      "description": null,
      "created_by": "meida",
      "updated_by": "meida",
      "created_at": "2025-04-03 09:08:12",
      "updated_at": "2025-04-03 09:08:12"
    }
  },
  {
    "id": "B0FFK7NHWW",
    "name": "天盟大溪地",
    "district": "安徽省安庆市宜秀区",
    "adcode": "340811",
    "location": [117.041316, 30.552684],
    "address": "迎宾西路321号",
    "typecode": "120302",
    "city": [],
    "item": {
      "community_name": "天盟。大溪地",
      "region": "大观区",
      "city": "安庆",
      "state": "安徽省",
      "postal_code": "246000",
      "year_built": null,
      "community_type": "普通住宅",
      "property_management_company": null,
      "description": null,
      "created_by": "meida",
      "updated_by": "meida",
      "created_at": "2025-05-15 08:50:51",
      "updated_at": "2025-05-15 08:50:51"
    }
  },
  {
    "id": "B022C0SAQW",
    "name": "天赐良缘小区",
    "district": "安徽省安庆市宜秀区",
    "adcode": "340811",
    "location": [117.062469, 30.539162],
    "address": "湖心北路12开发区附近",
    "typecode": "120302",
    "city": [],
    "item": {
      "community_name": "天赐良缘",
      "region": "宜秀区",
      "city": "安庆",
      "state": "安徽省",
      "postal_code": "246000",
      "year_built": 2004,
      "community_type": "普通住宅",
      "property_management_company": null,
      "description": null,
      "created_by": "meida",
      "updated_by": "meida",
      "created_at": "2025-05-22 08:41:24",
      "updated_at": "2025-05-22 08:41:24"
    }
  },
  {
    "id": "B022C05S38",
    "name": "天娇花园小区(天柱山西路)",
    "district": "安徽省安庆市宜秀区",
    "adcode": "340811",
    "location": [117.057166, 30.544787],
    "address": "天柱山路90号",
    "typecode": "120302",
    "city": [],
    "item": {
      "community_name": "天骄花园",
      "region": "大观区",
      "city": "安庆",
      "state": "安徽省",
      "postal_code": "246000",
      "year_built": 2003,
      "community_type": "普通住宅",
      "property_management_company": null,
      "description": null,
      "created_by": "meida",
      "updated_by": "meida",
      "created_at": "2025-07-03 08:32:12",
      "updated_at": "2025-07-03 08:32:12"
    }
  },
  {
    "id": "B0IA3KETDC",
    "name": "孝子坊街",
    "district": "安徽省安庆市大观区",
    "adcode": "340803",
    "location": [117.040185, 30.513315],
    "address": [],
    "typecode": "190301",
    "city": [],
    "item": {
      "community_name": "孝子坊",
      "region": "大观区",
      "city": "安庆",
      "state": "安徽省",
      "postal_code": "246000",
      "year_built": 1996,
      "community_type": "普通住宅",
      "property_management_company": null,
      "description": null,
      "created_by": "meida",
      "updated_by": "meida",
      "created_at": "2025-07-17 05:29:14",
      "updated_at": "2025-07-17 05:29:14"
    }
  },
  {
    "id": "B022C0SCQU",
    "name": "安庆市第一人民医院孝肃路院区外科楼",
    "district": "安徽省安庆市迎江区",
    "adcode": "340802",
    "location": [117.049577, 30.507798],
    "address": "孝肃路42号安庆市第一人民医院孝肃路院区",
    "typecode": "090101",
    "city": [],
    "item": {
      "community_name": "孝肃路综合楼",
      "region": "大观区",
      "city": "安庆",
      "state": "安徽省",
      "postal_code": "246000",
      "year_built": 1990,
      "community_type": "普通住宅",
      "property_management_company": null,
      "description": null,
      "created_by": "meida",
      "updated_by": "meida",
      "created_at": "2025-04-26 07:20:34",
      "updated_at": "2025-04-26 07:20:34"
    }
  },
  {
    "id": "B0FFG3CW4W",
    "name": "学府花园(文苑路)",
    "district": "安徽省安庆市宜秀区",
    "adcode": "340811",
    "location": [117.089421, 30.538945],
    "address": "祥和路与月池路交叉口西南160米",
    "typecode": "120302",
    "city": [],
    "item": {
      "community_name": "学府花园",
      "region": "宜秀区",
      "city": "安庆",
      "state": "安徽省",
      "postal_code": "246000",
      "year_built": 2017,
      "community_type": "普通住宅",
      "property_management_company": null,
      "description": null,
      "created_by": "meida",
      "updated_by": "meida",
      "created_at": "2024-11-09 03:13:06",
      "updated_at": "2024-11-09 03:13:06"
    }
  },
  {
    "id": "B0FFHHECHJ",
    "name": "安庆商城",
    "district": "安徽省安庆市大观区",
    "adcode": "340803",
    "location": [117.03967, 30.54003],
    "address": "集贤路街道集贤北路117号",
    "typecode": "060000",
    "city": [],
    "item": {
      "community_name": "安庆商城",
      "region": "迎江区",
      "city": "安庆",
      "state": "安徽省",
      "postal_code": "246000",
      "year_built": 1996,
      "community_type": "普通住宅",
      "property_management_company": null,
      "description": null,
      "created_by": "meida",
      "updated_by": "meida",
      "created_at": "2025-06-08 03:37:58",
      "updated_at": "2025-06-08 03:37:58"
    }
  },
  {
    "id": "B022C0RL2A",
    "name": "宏祥山庄",
    "district": "安徽省安庆市大观区",
    "adcode": "340803",
    "location": [117.0457, 30.526856],
    "address": "集贤南路200号",
    "typecode": "120302",
    "city": [],
    "item": {
      "community_name": "宏祥山庄",
      "region": "大观区",
      "city": "安庆",
      "state": "安徽省",
      "postal_code": "246000",
      "year_built": 2003,
      "community_type": "普通住宅",
      "property_management_company": null,
      "description": null,
      "created_by": "meida",
      "updated_by": "meida",
      "created_at": "2025-01-19 02:54:51",
      "updated_at": "2025-01-19 02:54:51"
    }
  },
  {
    "id": "B022C01ULF",
    "name": "宜园社区(宜园路)",
    "district": "安徽省安庆市大观区",
    "adcode": "340803",
    "location": [117.053517, 30.521847],
    "address": "宜园路80号",
    "typecode": "120302",
    "city": [],
    "item": {
      "community_name": "宜园小区",
      "region": "宜秀区",
      "city": "安庆",
      "state": "安徽省",
      "postal_code": "246000",
      "year_built": 2000,
      "community_type": "普通住宅",
      "property_management_company": null,
      "description": null,
      "created_by": "meida",
      "updated_by": "meida",
      "created_at": "2025-06-08 03:11:22",
      "updated_at": "2025-06-08 03:11:22"
    }
  },
  {
    "id": "B022C0SARH",
    "name": "宜海·格林镇",
    "district": "安徽省安庆市迎江区",
    "adcode": "340802",
    "location": [117.095114, 30.522332],
    "address": "皖江大道",
    "typecode": "120302",
    "city": [],
    "item": {
      "community_name": "宜海。格林镇",
      "region": "迎江区",
      "city": "安庆",
      "state": "安徽省",
      "postal_code": "246000",
      "year_built": 2009,
      "community_type": "普通住宅",
      "property_management_company": null,
      "description": null,
      "created_by": "meida",
      "updated_by": "meida",
      "created_at": "2025-05-15 09:21:58",
      "updated_at": "2025-05-15 09:21:58"
    }
  },
  {
    "id": "B0FFHRXORJ",
    "name": "宜秀蓝湾",
    "district": "安徽省安庆市宜秀区",
    "adcode": "340811",
    "location": [116.982611, 30.610255],
    "address": "稼先大道与龙潭路交叉口",
    "typecode": "120302",
    "city": [],
    "item": {
      "community_name": "宜秀蓝湾",
      "region": "大观区",
      "city": "安庆",
      "state": "安徽省",
      "postal_code": "246000",
      "year_built": 2015,
      "community_type": "普通住宅",
      "property_management_company": null,
      "description": null,
      "created_by": "meida",
      "updated_by": "meida",
      "created_at": "2025-04-29 01:56:31",
      "updated_at": "2025-04-29 01:56:31"
    }
  },
  {
    "id": "B022C01UKB",
    "name": "宜铜新村",
    "district": "安徽省安庆市大观区",
    "adcode": "340803",
    "location": [117.056681, 30.520801],
    "address": "宜园路1号",
    "typecode": "120302",
    "city": [],
    "item": {
      "community_name": "宜铜新村",
      "region": "大观区",
      "city": "安庆",
      "state": "安徽省",
      "postal_code": "246000",
      "year_built": 2000,
      "community_type": "普通住宅",
      "property_management_company": null,
      "description": null,
      "created_by": "meida",
      "updated_by": "meida",
      "created_at": "2025-03-22 08:19:47",
      "updated_at": "2025-03-22 08:19:47"
    }
  },
  {
    "id": "B0FFKJJA85",
    "name": "宝善庵",
    "district": "安徽省安庆市迎江区",
    "adcode": "340802",
    "location": [117.050415, 30.509598],
    "address": "百花亭街与宜城路交叉口西120米",
    "typecode": "110200",
    "city": [],
    "item": {
      "community_name": "宝善庵",
      "region": "迎江区",
      "city": "安庆",
      "state": "安徽省",
      "postal_code": "246000",
      "year_built": 1995,
      "community_type": "普通住宅",
      "property_management_company": null,
      "description": null,
      "created_by": "meida",
      "updated_by": "meida",
      "created_at": "2025-03-03 02:04:36",
      "updated_at": "2025-03-03 02:04:36"
    }
  },
  {
    "id": "B0FFFZTMFJ",
    "name": "宣家花园",
    "district": "安徽省安庆市迎江区",
    "adcode": "340802",
    "location": [117.045337, 30.509149],
    "address": "宣家花园街38号",
    "typecode": "120302",
    "city": [],
    "item": {
      "community_name": "宣家花园",
      "region": "大观区",
      "city": "安庆",
      "state": "安徽省",
      "postal_code": "246000",
      "year_built": null,
      "community_type": "普通住宅",
      "property_management_company": null,
      "description": null,
      "created_by": "meida",
      "updated_by": "meida",
      "created_at": "2025-04-27 07:35:52",
      "updated_at": "2025-04-27 07:35:52"
    }
  },
  {
    "id": "B0FFG1M3R4",
    "name": "富春国际花园",
    "district": "安徽省安庆市大观区",
    "adcode": "340803",
    "location": [117.023057, 30.552118],
    "address": "集贤北路513号",
    "typecode": "120302",
    "city": [],
    "item": {
      "community_name": "富春国际",
      "region": "大观区",
      "city": "安庆",
      "state": "安徽省",
      "postal_code": "246000",
      "year_built": 2013,
      "community_type": "普通住宅",
      "property_management_company": null,
      "description": null,
      "created_by": "meida",
      "updated_by": "meida",
      "created_at": "2025-06-04 06:30:39",
      "updated_at": "2025-06-04 06:30:39"
    }
  },
  {
    "id": "BZA7Q100G3",
    "name": "小珠子巷",
    "district": "安徽省安庆市大观区",
    "adcode": "340803",
    "location": [117.040633, 30.512021],
    "address": [],
    "typecode": "190301",
    "city": [],
    "item": {
      "community_name": "小珠子巷",
      "region": "大观区",
      "city": "安庆",
      "state": "安徽省",
      "postal_code": "246000",
      "year_built": 1998,
      "community_type": "普通住宅",
      "property_management_company": null,
      "description": null,
      "created_by": "meida",
      "updated_by": "meida",
      "created_at": "2025-07-12 08:42:17",
      "updated_at": "2025-07-12 08:42:17"
    }
  },
  {
    "id": "B022C05VHU",
    "name": "山圆小区",
    "district": "安徽省安庆市宜秀区",
    "adcode": "340811",
    "location": [117.054451, 30.549905],
    "address": "中兴大街149号",
    "typecode": "120302",
    "city": [],
    "item": {
      "community_name": "山圆小区",
      "region": "大观区",
      "city": "安庆",
      "state": "安徽省",
      "postal_code": "246000",
      "year_built": 2012,
      "community_type": "普通住宅",
      "property_management_company": null,
      "description": null,
      "created_by": "meida",
      "updated_by": "meida",
      "created_at": "2025-02-21 07:03:20",
      "updated_at": "2025-05-11 01:44:19"
    }
  },
  {
    "id": "B022C0RL2E",
    "name": "山城公寓",
    "district": "安徽省安庆市宜秀区",
    "adcode": "340811",
    "location": [117.063453, 30.541791],
    "address": "湖心北路72号",
    "typecode": "120302",
    "city": [],
    "item": {
      "community_name": "山城公寓",
      "region": "宜秀区",
      "city": "安庆",
      "state": "安徽省",
      "postal_code": "246000",
      "year_built": null,
      "community_type": "普通住宅",
      "property_management_company": null,
      "description": null,
      "created_by": "meida",
      "updated_by": "meida",
      "created_at": "2024-10-14 08:14:36",
      "updated_at": "2024-10-14 08:14:36"
    }
  },
  {
    "id": "B022C0RL2F",
    "name": "山城花园(湖心北路)",
    "district": "安徽省安庆市宜秀区",
    "adcode": "340811",
    "location": [117.063909, 30.547188],
    "address": "湖心北路",
    "typecode": "120302",
    "city": [],
    "item": {
      "community_name": "山城大厦",
      "region": "宜秀区",
      "city": "安庆",
      "state": "安徽省",
      "postal_code": "246000",
      "year_built": 2003,
      "community_type": "普通住宅",
      "property_management_company": null,
      "description": null,
      "created_by": "meida",
      "updated_by": "meida",
      "created_at": "2025-04-24 09:46:54",
      "updated_at": "2025-04-24 09:46:54"
    }
  },
  {
    "id": "B022C0RL2F",
    "name": "山城花园(湖心北路)",
    "district": "安徽省安庆市宜秀区",
    "adcode": "340811",
    "location": [117.063909, 30.547188],
    "address": "湖心北路",
    "typecode": "120302",
    "city": [],
    "item": {
      "community_name": "山城花园",
      "region": "宜秀区",
      "city": "安庆",
      "state": "安徽省",
      "postal_code": "246000",
      "year_built": 2001,
      "community_type": "普通住宅",
      "property_management_company": null,
      "description": null,
      "created_by": "meida",
      "updated_by": "meida",
      "created_at": "2024-12-07 03:12:12",
      "updated_at": "2024-12-07 03:12:12"
    }
  },
  {
    "id": "B022C0SRIF",
    "name": "峻泓·馨居",
    "district": "安徽省安庆市宜秀区",
    "adcode": "340811",
    "location": [117.09767, 30.544353],
    "address": "大桥街道迎宾东路",
    "typecode": "120302",
    "city": [],
    "item": {
      "community_name": "峻泓馨居",
      "region": "宜秀区",
      "city": "安庆",
      "state": "安徽省",
      "postal_code": "246000",
      "year_built": 2015,
      "community_type": "普通住宅",
      "property_management_company": null,
      "description": "经济适用房",
      "created_by": "meida",
      "updated_by": "meida",
      "created_at": "2024-10-10 10:36:08",
      "updated_at": "2024-10-10 10:36:08"
    }
  },
  {
    "id": "B0FFGQDODW",
    "name": "工农街",
    "district": "安徽省安庆市大观区",
    "adcode": "340803",
    "location": [117.04118, 30.518353],
    "address": [],
    "typecode": "190301",
    "city": [],
    "item": {
      "community_name": "工农街",
      "region": "大观区",
      "city": "安庆",
      "state": "安徽省",
      "postal_code": "246000",
      "year_built": 1995,
      "community_type": "普通住宅",
      "property_management_company": null,
      "description": null,
      "created_by": "meida",
      "updated_by": "meida",
      "created_at": "2025-05-07 10:52:51",
      "updated_at": "2025-05-07 10:52:51"
    }
  },
  {
    "id": "B022C05S2Q",
    "name": "巨源小区",
    "district": "安徽省安庆市宜秀区",
    "adcode": "340811",
    "location": [117.053899, 30.536749],
    "address": "中兴大道",
    "typecode": "120302",
    "city": [],
    "item": {
      "community_name": "巨源小区",
      "region": "宜秀区",
      "city": "安庆",
      "state": "安徽省",
      "postal_code": "246000",
      "year_built": 2002,
      "community_type": "普通住宅",
      "property_management_company": null,
      "description": null,
      "created_by": "meida",
      "updated_by": "meida",
      "created_at": "2024-12-01 09:01:34",
      "updated_at": "2024-12-01 09:01:34"
    }
  },
  {
    "id": "B022C01Q8B",
    "name": "市府小区(市府路)",
    "district": "安徽省安庆市大观区",
    "adcode": "340803",
    "location": [117.054273, 30.524799],
    "address": "市府路4号",
    "typecode": "120302",
    "city": [],
    "item": {
      "community_name": "市府小区",
      "region": "大观区",
      "city": "安庆",
      "state": "安徽省",
      "postal_code": "246000",
      "year_built": 1996,
      "community_type": "普通住宅",
      "property_management_company": null,
      "description": null,
      "created_by": "meida",
      "updated_by": "meida",
      "created_at": "2025-06-25 08:36:35",
      "updated_at": "2025-06-25 08:36:35"
    }
  },
  {
    "id": "B0FFGQF6FZ",
    "name": "市府路南一巷",
    "district": "安徽省安庆市大观区",
    "adcode": "340803",
    "location": [117.052044, 30.522461],
    "address": [],
    "typecode": "190301",
    "city": [],
    "item": {
      "community_name": "市府路南一巷",
      "region": "大观区",
      "city": "安庆",
      "state": "安徽省",
      "postal_code": "246000",
      "year_built": 1993,
      "community_type": "普通住宅",
      "property_management_company": null,
      "description": null,
      "created_by": "meida",
      "updated_by": "meida",
      "created_at": "2025-05-17 07:18:43",
      "updated_at": "2025-05-17 07:18:43"
    }
  },
  {
    "id": "B0FFGQESO0",
    "name": "市府路南三巷",
    "district": "安徽省安庆市大观区",
    "adcode": "340803",
    "location": [117.047237, 30.522538],
    "address": [],
    "typecode": "190301",
    "city": [],
    "item": {
      "community_name": "市府路南三巷",
      "region": "大观区",
      "city": "安庆",
      "state": "安徽省",
      "postal_code": "246000",
      "year_built": 2000,
      "community_type": "普通住宅",
      "property_management_company": null,
      "description": null,
      "created_by": "meida",
      "updated_by": "meida",
      "created_at": "2025-04-25 07:06:00",
      "updated_at": "2025-04-25 07:06:00"
    }
  },
  {
    "id": "B0FFFSAO3I",
    "name": "五星综合楼",
    "district": "四川省广安市华蓥市",
    "adcode": "511681",
    "location": [106.776451, 30.377749],
    "address": "清溪路5号",
    "typecode": "120201",
    "city": [],
    "item": {
      "community_name": "广安综合楼",
      "region": "宜秀区",
      "city": "安庆",
      "state": "安徽省",
      "postal_code": "246000",
      "year_built": 2003,
      "community_type": "普通住宅",
      "property_management_company": null,
      "description": null,
      "created_by": "meida",
      "updated_by": "meida",
      "created_at": "2025-02-22 02:27:58",
      "updated_at": "2025-02-22 02:27:58"
    }
  },
  {
    "id": "B0J15CZMNJ",
    "name": "广汇综合楼32号楼",
    "district": "安徽省安庆市宜秀区",
    "adcode": "340811",
    "location": [117.0576, 30.547077],
    "address": "中兴大道",
    "typecode": "190403",
    "city": [],
    "item": {
      "community_name": "广汇综合楼",
      "region": "宜秀区",
      "city": "安庆",
      "state": "安徽省",
      "postal_code": "246000",
      "year_built": 2000,
      "community_type": "普通住宅",
      "property_management_company": null,
      "description": null,
      "created_by": "meida",
      "updated_by": "meida",
      "created_at": "2025-03-18 01:50:56",
      "updated_at": "2025-03-18 01:50:56"
    }
  },
  {
    "id": "B022C01JFA",
    "name": "广汇花园",
    "district": "安徽省安庆市宜秀区",
    "adcode": "340811",
    "location": [117.061168, 30.54537],
    "address": "开发区雷池路十九号",
    "typecode": "120302",
    "city": [],
    "item": {
      "community_name": "广汇花园",
      "region": "宜秀区",
      "city": "安庆",
      "state": "安徽省",
      "postal_code": "246000",
      "year_built": 2007,
      "community_type": "普通住宅",
      "property_management_company": null,
      "description": "封闭小区",
      "created_by": "meida",
      "updated_by": "蒋丽芳",
      "created_at": "2024-09-30 05:05:22",
      "updated_at": "2024-10-06 07:49:11"
    }
  },
  {
    "id": "B022C05WWQ",
    "name": "康居里",
    "district": "安徽省安庆市迎江区",
    "adcode": "340802",
    "location": [117.056901, 30.507836],
    "address": "湖心南路212号",
    "typecode": "120302",
    "city": [],
    "item": {
      "community_name": "康居里",
      "region": "大观区",
      "city": "安庆",
      "state": "安徽省",
      "postal_code": "246000",
      "year_built": 2003,
      "community_type": "普通住宅",
      "property_management_company": null,
      "description": null,
      "created_by": "meida",
      "updated_by": "meida",
      "created_at": "2025-07-03 07:49:51",
      "updated_at": "2025-07-03 07:49:51"
    }
  },
  {
    "id": "B022C01MS2",
    "name": "康莱特家苑",
    "district": "安徽省安庆市宜秀区",
    "adcode": "340811",
    "location": [117.074701, 30.532248],
    "address": "盛唐湾路1号",
    "typecode": "120302",
    "city": [],
    "item": {
      "community_name": "康莱特家苑",
      "region": "宜秀区",
      "city": "安庆",
      "state": "安徽省",
      "postal_code": "246000",
      "year_built": 2003,
      "community_type": "普通住宅",
      "property_management_company": null,
      "description": "封闭小区环境好",
      "created_by": "meida",
      "updated_by": "meida",
      "created_at": "2024-10-13 02:40:06",
      "updated_at": "2024-10-13 02:40:06"
    }
  },
  {
    "id": "B0JG6CPBIL",
    "name": "建司大院",
    "district": "安徽省安庆市迎江区",
    "adcode": "340802",
    "location": [117.066605, 30.508903],
    "address": "棋盘山路与华中西路交叉口北180米",
    "typecode": "120302",
    "city": [],
    "item": {
      "community_name": "建司大院",
      "region": "大观区",
      "city": "安庆",
      "state": "安徽省",
      "postal_code": "246000",
      "year_built": 1990,
      "community_type": "普通住宅",
      "property_management_company": null,
      "description": "天一家园旁边",
      "created_by": "meida",
      "updated_by": "meida",
      "created_at": "2025-04-29 02:40:48",
      "updated_at": "2025-05-17 02:18:49"
    }
  },
  {
    "id": "B0JG6CPBIL",
    "name": "建司大院",
    "district": "安徽省安庆市迎江区",
    "adcode": "340802",
    "location": [117.066605, 30.508903],
    "address": "棋盘山路与华中西路交叉口北180米",
    "typecode": "120302",
    "city": [],
    "item": {
      "community_name": "建司宿舍",
      "region": "大观区",
      "city": "安庆",
      "state": "安徽省",
      "postal_code": "246000",
      "year_built": 1990,
      "community_type": "普通住宅",
      "property_management_company": null,
      "description": "黄土坑西路",
      "created_by": "meida",
      "updated_by": "meida",
      "created_at": "2025-05-17 02:17:56",
      "updated_at": "2025-05-17 02:17:56"
    }
  },
  {
    "id": "B0FFGTPZTR",
    "name": "弘信花园",
    "district": "安徽省安庆市迎江区",
    "adcode": "340802",
    "location": [117.054671, 30.511668],
    "address": "宜城路街道宜城路吉祥街228号",
    "typecode": "120302",
    "city": [],
    "item": {
      "community_name": "弘信花园",
      "region": "大观区",
      "city": "安庆",
      "state": "安徽省",
      "postal_code": "246000",
      "year_built": 2005,
      "community_type": "普通住宅",
      "property_management_company": null,
      "description": null,
      "created_by": "meida",
      "updated_by": "meida",
      "created_at": "2025-05-21 01:43:56",
      "updated_at": "2025-05-21 01:43:56"
    }
  },
  {
    "id": "B0L6XDX124",
    "name": "弘阳上城",
    "district": "安徽省安庆市宜秀区",
    "adcode": "340811",
    "location": [117.099013, 30.546145],
    "address": "朝阳路91号弘阳上城一期",
    "typecode": "120302",
    "city": [],
    "item": {
      "community_name": "弘阳上城",
      "region": "宜秀区",
      "city": "安庆",
      "state": "安徽省",
      "postal_code": "246000",
      "year_built": 2022,
      "community_type": "普通住宅",
      "property_management_company": null,
      "description": null,
      "created_by": "meida",
      "updated_by": "meida",
      "created_at": "2025-04-26 05:18:05",
      "updated_at": "2025-04-26 05:18:05"
    }
  },
  {
    "id": "B022C0T093",
    "name": "御景国际(吉祥街)",
    "district": "安徽省安庆市迎江区",
    "adcode": "340802",
    "location": [117.05344, 30.512443],
    "address": "菱湖南路271号",
    "typecode": "120302",
    "city": [],
    "item": {
      "community_name": "御景国际",
      "region": "大观区",
      "city": "安庆",
      "state": "安徽省",
      "postal_code": "246000",
      "year_built": 2013,
      "community_type": "普通住宅",
      "property_management_company": null,
      "description": null,
      "created_by": "meida",
      "updated_by": "meida",
      "created_at": "2025-04-26 07:01:48",
      "updated_at": "2025-04-26 07:01:48"
    }
  },
  {
    "id": "B0FFGA2AP3",
    "name": "思创商务楼",
    "district": "安徽省安庆市宜秀区",
    "adcode": "340811",
    "location": [117.061398, 30.54722],
    "address": "菱北街道开发区",
    "typecode": "120200",
    "city": [],
    "item": {
      "community_name": "思创综合楼",
      "region": "宜秀区",
      "city": "安庆",
      "state": "安徽省",
      "postal_code": "246000",
      "year_built": null,
      "community_type": "普通住宅",
      "property_management_company": null,
      "description": null,
      "created_by": "meida",
      "updated_by": "meida",
      "created_at": "2024-11-23 06:11:14",
      "updated_at": "2024-11-23 06:11:14"
    }
  },
  {
    "id": "B0FFKFM01D",
    "name": "恒大优公馆",
    "district": "安徽省安庆市迎江区",
    "adcode": "340802",
    "location": [117.101999, 30.517724],
    "address": "独秀大道与皖江大道交叉口东南160米",
    "typecode": "120302",
    "city": [],
    "item": {
      "community_name": "恒大优公馆",
      "region": "迎江区",
      "city": "安庆",
      "state": "安徽省",
      "postal_code": "246000",
      "year_built": 2020,
      "community_type": "普通住宅",
      "property_management_company": null,
      "description": null,
      "created_by": "meida",
      "updated_by": "meida",
      "created_at": "2025-07-03 09:07:56",
      "updated_at": "2025-07-03 09:07:56"
    }
  },
  {
    "id": "B0FFI8BMIS",
    "name": "安庆恒大·珺睿府",
    "district": "安徽省安庆市宜秀区",
    "adcode": "340811",
    "location": [117.10233, 30.537317],
    "address": "独秀大道和天柱山东路市立医院分院对面",
    "typecode": "120302",
    "city": [],
    "item": {
      "community_name": "恒大珺睿府",
      "region": "宜秀区",
      "city": "安庆",
      "state": "安徽省",
      "postal_code": "246000",
      "year_built": 2020,
      "community_type": "普通住宅",
      "property_management_company": "恒大",
      "description": "高档小区    环境好",
      "created_by": "meida",
      "updated_by": "meida",
      "created_at": "2024-11-23 06:31:37",
      "updated_at": "2024-11-23 06:31:37"
    }
  },
  {
    "id": "B022C0TB4W",
    "name": "恒大绿洲",
    "district": "安徽省安庆市迎江区",
    "adcode": "340802",
    "location": [117.104079, 30.516613],
    "address": "龙狮桥乡皖江大道162号",
    "typecode": "120302",
    "city": [],
    "item": {
      "community_name": "恒大绿洲",
      "region": "迎江区",
      "city": "安庆",
      "state": "安徽省",
      "postal_code": "246000",
      "year_built": 2012,
      "community_type": "普通住宅",
      "property_management_company": "恒大物业",
      "description": "高档小区",
      "created_by": "meida",
      "updated_by": "meida",
      "created_at": "2024-11-08 07:54:05",
      "updated_at": "2024-11-08 07:54:05"
    }
  },
  {
    "id": "B0FFKFM038",
    "name": "安庆恒大观澜府",
    "district": "安徽省安庆市宜秀区",
    "adcode": "340811",
    "location": [117.097927, 30.55049],
    "address": "独秀大道与白泽路交汇处",
    "typecode": "120302",
    "city": [],
    "item": {
      "community_name": "恒大观澜府",
      "region": "宜秀区",
      "city": "安庆",
      "state": "安徽省",
      "postal_code": "246000",
      "year_built": 2018,
      "community_type": "普通住宅",
      "property_management_company": null,
      "description": null,
      "created_by": "meida",
      "updated_by": "meida",
      "created_at": "2025-05-11 07:25:48",
      "updated_at": "2025-05-11 07:25:48"
    }
  },
  {
    "id": "B0FFFW2CKE",
    "name": "恒禾东尚",
    "district": "安徽省安庆市宜秀区",
    "adcode": "340811",
    "location": [117.102804, 30.541317],
    "address": "独秀大道与安庆七街交汇处",
    "typecode": "120302",
    "city": [],
    "item": {
      "community_name": "恒禾东尚",
      "region": "宜秀区",
      "city": "安庆",
      "state": "安徽省",
      "postal_code": "246000",
      "year_built": 2015,
      "community_type": "普通住宅",
      "property_management_company": null,
      "description": null,
      "created_by": "meida",
      "updated_by": "meida",
      "created_at": "2024-12-22 03:03:59",
      "updated_at": "2024-12-22 03:03:59"
    }
  },
  {
    "id": "B0FFGQCOZF",
    "name": "戏校南路",
    "district": "安徽省安庆市大观区",
    "adcode": "340803",
    "location": [117.045252, 30.518522],
    "address": [],
    "typecode": "190301",
    "city": [],
    "item": {
      "community_name": "戏校南路",
      "region": "大观区",
      "city": "安庆",
      "state": "安徽省",
      "postal_code": "246000",
      "year_built": 1999,
      "community_type": "普通住宅",
      "property_management_company": null,
      "description": null,
      "created_by": "meida",
      "updated_by": "meida",
      "created_at": "2025-06-03 01:17:20",
      "updated_at": "2025-06-03 01:17:20"
    }
  },
  {
    "id": "B0FFFZLSLP",
    "name": "振风苑小区",
    "district": "安徽省安庆市宜秀区",
    "adcode": "340811",
    "location": [117.090041, 30.528843],
    "address": "振风大道与文苑路交叉口东北120米",
    "typecode": "120302",
    "city": [],
    "item": {
      "community_name": "振风苑",
      "region": "宜秀区",
      "city": "安庆",
      "state": "安徽省",
      "postal_code": "246000",
      "year_built": 2014,
      "community_type": "普通住宅",
      "property_management_company": null,
      "description": null,
      "created_by": "meida",
      "updated_by": "meida",
      "created_at": "2025-05-22 08:29:48",
      "updated_at": "2025-05-22 08:29:48"
    }
  },
  {
    "id": "B0FFHOZUGJ",
    "name": "文教花园",
    "district": "安徽省安庆市迎江区",
    "adcode": "340802",
    "location": [117.064359, 30.509977],
    "address": "宜光西路与棋盘山路交叉口西240米",
    "typecode": "120302",
    "city": [],
    "item": {
      "community_name": "文教花园",
      "region": "大观区",
      "city": "安庆",
      "state": "安徽省",
      "postal_code": "246000",
      "year_built": 2000,
      "community_type": "普通住宅",
      "property_management_company": null,
      "description": null,
      "created_by": "meida",
      "updated_by": "meida",
      "created_at": "2025-05-11 07:01:57",
      "updated_at": "2025-05-11 07:01:57"
    }
  },
  {
    "id": "B022C0T096",
    "name": "文苑世家",
    "district": "安徽省安庆市宜秀区",
    "adcode": "340811",
    "location": [117.086355, 30.539076],
    "address": "安庆天柱山东路与文苑路交汇处",
    "typecode": "120302",
    "city": [],
    "item": {
      "community_name": "文苑世家",
      "region": "宜秀区",
      "city": "安庆",
      "state": "安徽省",
      "postal_code": "246000",
      "year_built": 2015,
      "community_type": "普通住宅",
      "property_management_company": null,
      "description": null,
      "created_by": "meida",
      "updated_by": "钱平香",
      "created_at": "2025-07-08 06:43:10",
      "updated_at": "2025-07-10 10:08:31"
    }
  },
  {
    "id": "B0FFGA47JK",
    "name": "新宜小区",
    "district": "安徽省安庆市迎江区",
    "adcode": "340802",
    "location": [117.092513, 30.522727],
    "address": "新河支路与规划二路交叉口西北260米",
    "typecode": "120302",
    "city": [],
    "item": {
      "community_name": "新宜小区",
      "region": "宜秀区",
      "city": "安庆",
      "state": "安徽省",
      "postal_code": "246000",
      "year_built": 2003,
      "community_type": "普通住宅",
      "property_management_company": null,
      "description": null,
      "created_by": "meida",
      "updated_by": "meida",
      "created_at": "2025-04-29 01:47:29",
      "updated_at": "2025-04-29 01:47:29"
    }
  },
  {
    "id": "B0FFFOSVDF",
    "name": "方兴苑",
    "district": "安徽省安庆市迎江区",
    "adcode": "340802",
    "location": [117.175111, 30.55124],
    "address": "老峰镇西湖社区",
    "typecode": "120302",
    "city": [],
    "item": {
      "community_name": "方兴苑",
      "region": "宜秀区",
      "city": "安庆",
      "state": "安徽省",
      "postal_code": "246000",
      "year_built": 2018,
      "community_type": "普通住宅",
      "property_management_company": null,
      "description": null,
      "created_by": "meida",
      "updated_by": "meida",
      "created_at": "2025-04-26 09:01:00",
      "updated_at": "2025-04-26 09:01:00"
    }
  },
  {
    "id": "B0FFF2UGQ1",
    "name": "棋杆新村",
    "district": "安徽省安庆市大观区",
    "adcode": "340803",
    "location": [117.043104, 30.526581],
    "address": "集贤路街道",
    "typecode": "120000",
    "city": [],
    "item": {
      "community_name": "旗杆新村",
      "region": "大观区",
      "city": "安庆",
      "state": "安徽省",
      "postal_code": "246000",
      "year_built": 1988,
      "community_type": "普通住宅",
      "property_management_company": null,
      "description": "石化一中学区房",
      "created_by": "meida",
      "updated_by": "meida",
      "created_at": "2024-10-15 10:48:41",
      "updated_at": "2024-10-15 10:48:41"
    }
  },
  {
    "id": "B022C05W84",
    "name": "时代嘉园",
    "district": "安徽省安庆市宜秀区",
    "adcode": "340811",
    "location": [117.066999, 30.546921],
    "address": "迎宾路99号",
    "typecode": "120302",
    "city": [],
    "item": {
      "community_name": "时代嘉苑",
      "region": "宜秀区",
      "city": "安庆",
      "state": "安徽省",
      "postal_code": "246000",
      "year_built": 2007,
      "community_type": "普通住宅",
      "property_management_company": null,
      "description": "封闭小区",
      "created_by": "meida",
      "updated_by": "meida",
      "created_at": "2024-10-01 11:30:42",
      "updated_at": "2024-10-01 11:30:42"
    }
  },
  {
    "id": "B022C05X7V",
    "name": "旺园小区",
    "district": "安徽省安庆市宜秀区",
    "adcode": "340811",
    "location": [117.071213, 30.532729],
    "address": "裕庆路与盛唐湾路交叉口西南160米",
    "typecode": "120302",
    "city": [],
    "item": {
      "community_name": "旺园小区",
      "region": "宜秀区",
      "city": "安庆",
      "state": "安徽省",
      "postal_code": "246000",
      "year_built": null,
      "community_type": "普通住宅",
      "property_management_company": null,
      "description": null,
      "created_by": "meida",
      "updated_by": "meida",
      "created_at": "2024-10-23 07:42:20",
      "updated_at": "2024-10-23 07:42:20"
    }
  },
  {
    "id": "B022C05W82",
    "name": "旺旺家缘(天柱山东路)",
    "district": "安徽省安庆市宜秀区",
    "adcode": "340811",
    "location": [117.086542, 30.537537],
    "address": "元山路",
    "typecode": "120302",
    "city": [],
    "item": {
      "community_name": "旺旺家缘",
      "region": "宜秀区",
      "city": "安庆",
      "state": "安徽省",
      "postal_code": "246000",
      "year_built": 2010,
      "community_type": "普通住宅",
      "property_management_company": null,
      "description": null,
      "created_by": "meida",
      "updated_by": "meida",
      "created_at": "2025-04-24 09:40:38",
      "updated_at": "2025-04-24 09:40:38"
    }
  },
  {
    "id": "B0FFGA47JK",
    "name": "新宜小区",
    "district": "安徽省安庆市迎江区",
    "adcode": "340802",
    "location": [117.092513, 30.522727],
    "address": "新河支路与规划二路交叉口西北260米",
    "typecode": "120302",
    "city": [],
    "item": {
      "community_name": "星宜小区",
      "region": "宜秀区",
      "city": "安庆",
      "state": "安徽省",
      "postal_code": "246000",
      "year_built": 2000,
      "community_type": "普通住宅",
      "property_management_company": null,
      "description": null,
      "created_by": "meida",
      "updated_by": "meida",
      "created_at": "2024-11-23 06:17:08",
      "updated_at": "2024-11-23 06:17:08"
    }
  },
  {
    "id": "B022C01MJP",
    "name": "景湖嘉苑(旺园路)",
    "district": "安徽省安庆市宜秀区",
    "adcode": "340811",
    "location": [117.073348, 30.531005],
    "address": "旺园路3号",
    "typecode": "120302",
    "city": [],
    "item": {
      "community_name": "景湖嘉苑",
      "region": "宜秀区",
      "city": "安庆",
      "state": "安徽省",
      "postal_code": "246000",
      "year_built": 2005,
      "community_type": "普通住宅",
      "property_management_company": null,
      "description": null,
      "created_by": "meida",
      "updated_by": "meida",
      "created_at": "2025-02-05 06:29:07",
      "updated_at": "2025-02-05 06:29:07"
    }
  },
  {
    "id": "B022C01MG4",
    "name": "晶海花园",
    "district": "安徽省安庆市宜秀区",
    "adcode": "340811",
    "location": [117.051995, 30.535245],
    "address": "中兴大道101号",
    "typecode": "120302",
    "city": [],
    "item": {
      "community_name": "晶海花园",
      "region": "宜秀区",
      "city": "安庆",
      "state": "安徽省",
      "postal_code": "246000",
      "year_built": null,
      "community_type": "普通住宅",
      "property_management_company": null,
      "description": "临近中兴大道",
      "created_by": "蒋丽芳",
      "updated_by": "meida",
      "created_at": "2024-12-08 08:47:33",
      "updated_at": "2025-04-24 09:55:54"
    }
  },
  {
    "id": "B022C05S27",
    "name": "月亮城小区",
    "district": "安徽省安庆市大观区",
    "adcode": "340803",
    "location": [117.034372, 30.506398],
    "address": "玉虹街",
    "typecode": "120302",
    "city": [],
    "item": {
      "community_name": "月亮城",
      "region": "大观区",
      "city": "安庆",
      "state": "安徽省",
      "postal_code": "246000",
      "year_built": 2000,
      "community_type": "普通住宅",
      "property_management_company": null,
      "description": "四中单学区",
      "created_by": "meida",
      "updated_by": "meida",
      "created_at": "2025-06-03 02:05:36",
      "updated_at": "2025-06-03 02:06:18"
    }
  },
  {
    "id": "BZA7Q100C0",
    "name": "月牙宫巷",
    "district": "安徽省安庆市迎江区",
    "adcode": "340802",
    "location": [117.041143, 30.503698],
    "address": [],
    "typecode": "190301",
    "city": [],
    "item": {
      "community_name": "月牙宫",
      "region": "迎江区",
      "city": "安庆",
      "state": "安徽省",
      "postal_code": "246000",
      "year_built": 1990,
      "community_type": "普通住宅",
      "property_management_company": null,
      "description": null,
      "created_by": "meida",
      "updated_by": "meida",
      "created_at": "2025-05-08 08:09:02",
      "updated_at": "2025-05-08 08:09:02"
    }
  },
  {
    "id": "B0FFL8705P",
    "name": "朝阳小区",
    "district": "安徽省安庆市宜秀区",
    "adcode": "340811",
    "location": [117.093441, 30.545992],
    "address": "朝阳路18号",
    "typecode": "120302",
    "city": [],
    "item": {
      "community_name": "朝阳小区",
      "region": "宜秀区",
      "city": "安庆",
      "state": "安徽省",
      "postal_code": "246000",
      "year_built": null,
      "community_type": "普通住宅",
      "property_management_company": null,
      "description": null,
      "created_by": "meida",
      "updated_by": "meida",
      "created_at": "2024-10-23 06:52:33",
      "updated_at": "2024-10-23 06:52:33"
    }
  },
  {
    "id": "B0FFF2LYW3",
    "name": "林语棠",
    "district": "安徽省安庆市迎江区",
    "adcode": "340802",
    "location": [117.108309, 30.517616],
    "address": "皖江大道168号",
    "typecode": "120302",
    "city": [],
    "item": {
      "community_name": "林语堂",
      "region": "迎江区",
      "city": "安庆",
      "state": "安徽省",
      "postal_code": "246000",
      "year_built": 2015,
      "community_type": "普通住宅",
      "property_management_company": null,
      "description": null,
      "created_by": "meida",
      "updated_by": "meida",
      "created_at": "2025-05-24 08:20:48",
      "updated_at": "2025-05-24 08:20:48"
    }
  },
  {
    "id": "B0KUDKAPUT",
    "name": "枸杞山巷1栋",
    "district": "安徽省安庆市大观区",
    "adcode": "340803",
    "location": [117.033981, 30.503321],
    "address": "沿江西路与程良路交叉口东120米",
    "typecode": "190403",
    "city": [],
    "item": {
      "community_name": "枸杞山",
      "region": "大观区",
      "city": "安庆",
      "state": "安徽省",
      "postal_code": "246000",
      "year_built": 1996,
      "community_type": "普通住宅",
      "property_management_company": null,
      "description": null,
      "created_by": "meida",
      "updated_by": "meida",
      "created_at": "2025-06-14 12:06:54",
      "updated_at": "2025-06-14 12:06:54"
    }
  },
  {
    "id": "B0FFF2B6FM",
    "name": "梦祯苑北苑",
    "district": "安徽省安庆市宜秀区",
    "adcode": "340811",
    "location": [117.053164, 30.543623],
    "address": "春华路与余店路交叉口东北120米",
    "typecode": "120302",
    "city": [],
    "item": {
      "community_name": "梦祯北苑",
      "region": "大观区",
      "city": "安庆",
      "state": "安徽省",
      "postal_code": "246000",
      "year_built": null,
      "community_type": "普通住宅",
      "property_management_company": null,
      "description": null,
      "created_by": "meida",
      "updated_by": "meida",
      "created_at": "2025-04-23 05:12:40",
      "updated_at": "2025-04-23 05:12:40"
    }
  },
  {
    "id": "B0FFF031J0",
    "name": "梦祯苑南苑",
    "district": "安徽省安庆市宜秀区",
    "adcode": "340811",
    "location": [117.052627, 30.542004],
    "address": "余店路与春华路交叉口南100米",
    "typecode": "120302",
    "city": [],
    "item": {
      "community_name": "梦祯南苑",
      "region": "宜秀区",
      "city": "安庆",
      "state": "安徽省",
      "postal_code": "246000",
      "year_built": 2004,
      "community_type": "普通住宅",
      "property_management_company": null,
      "description": null,
      "created_by": "meida",
      "updated_by": "meida",
      "created_at": "2025-03-20 07:43:50",
      "updated_at": "2025-03-20 07:43:50"
    }
  },
  {
    "id": "B022C01OI7",
    "name": "欧风怡庭",
    "district": "安徽省安庆市宜秀区",
    "adcode": "340811",
    "location": [117.062448, 30.544659],
    "address": "湖心北路89号",
    "typecode": "120302",
    "city": [],
    "item": {
      "community_name": "欧风怡庭",
      "region": "宜秀区",
      "city": "安庆",
      "state": "安徽省",
      "postal_code": "246000",
      "year_built": 2008,
      "community_type": "公寓",
      "property_management_company": null,
      "description": "高档小区",
      "created_by": "meida",
      "updated_by": "meida",
      "created_at": "2024-12-03 06:29:24",
      "updated_at": "2024-12-03 06:29:24"
    }
  },
  {
    "id": "B0J26CQP8S",
    "name": "毛纺厂宿舍东1栋",
    "district": "安徽省安庆市宜秀区",
    "adcode": "340811",
    "location": [117.051737, 30.536892],
    "address": "黄土坑东路40号毛纺厂综合楼",
    "typecode": "190403",
    "city": [],
    "item": {
      "community_name": "毛纺厂宿舍",
      "region": "大观区",
      "city": "安庆",
      "state": "安徽省",
      "postal_code": "246000",
      "year_built": null,
      "community_type": "普通住宅",
      "property_management_company": null,
      "description": null,
      "created_by": "meida",
      "updated_by": "meida",
      "created_at": "2025-05-17 07:27:33",
      "updated_at": "2025-05-17 07:27:33"
    }
  },
  {
    "id": "B022C0SAQ6",
    "name": "水岸花都",
    "district": "安徽省安庆市迎江区",
    "adcode": "340802",
    "location": [117.098284, 30.51108],
    "address": "华中路与乔年路交叉口东南200米",
    "typecode": "120302",
    "city": [],
    "item": {
      "community_name": "水岸花都",
      "region": "迎江区",
      "city": "安庆",
      "state": "安徽省",
      "postal_code": "246000",
      "year_built": 2016,
      "community_type": "普通住宅",
      "property_management_company": null,
      "description": null,
      "created_by": "meida",
      "updated_by": "meida",
      "created_at": "2025-02-05 03:33:37",
      "updated_at": "2025-02-05 03:33:37"
    }
  },
  {
    "id": "B0IA3GJH9J",
    "name": "永安街",
    "district": "安徽省安庆市怀宁县",
    "adcode": "340822",
    "location": [116.831929, 30.736378],
    "address": [],
    "typecode": "190301",
    "city": [],
    "item": {
      "community_name": "永安街",
      "region": "大观区",
      "city": "安庆",
      "state": "安徽省",
      "postal_code": "246000",
      "year_built": 1994,
      "community_type": "普通住宅",
      "property_management_company": null,
      "description": null,
      "created_by": "meida",
      "updated_by": "meida",
      "created_at": "2025-07-04 01:45:03",
      "updated_at": "2025-07-04 01:45:03"
    }
  },
  {
    "id": "B0FFG4U2ST",
    "name": "汇峰广场",
    "district": "安徽省安庆市大观区",
    "adcode": "340803",
    "location": [117.05617, 30.525013],
    "address": "湖心中路与市府路交叉口西北160米",
    "typecode": "120000",
    "city": [],
    "item": {
      "community_name": "汇丰广场",
      "region": "大观区",
      "city": "安庆",
      "state": "安徽省",
      "postal_code": "246000",
      "year_built": 2015,
      "community_type": "普通住宅",
      "property_management_company": "汇丰物业",
      "description": null,
      "created_by": "meida",
      "updated_by": "meida",
      "created_at": "2025-04-11 02:36:37",
      "updated_at": "2025-04-11 02:36:37"
    }
  },
  {
    "id": "B022C0S6UW",
    "name": "江菱商贸城",
    "district": "安徽省安庆市宜秀区",
    "adcode": "340811",
    "location": [117.066585, 30.545653],
    "address": "雷池路6号",
    "typecode": "120302",
    "city": [],
    "item": {
      "community_name": "江菱商贸城",
      "region": "宜秀区",
      "city": "安庆",
      "state": "安徽省",
      "postal_code": "246000",
      "year_built": 2002,
      "community_type": "普通住宅",
      "property_management_company": "江菱物业",
      "description": "小区带幼儿园，干净，，停车位多",
      "created_by": "meida",
      "updated_by": "meida",
      "created_at": "2024-11-08 05:06:17",
      "updated_at": "2025-07-11 07:08:43"
    }
  },
  {
    "id": "B022C05WVR",
    "name": "海信苑",
    "district": "安徽省安庆市宜秀区",
    "adcode": "340811",
    "location": [117.068872, 30.546344],
    "address": "迎宾西路",
    "typecode": "120302",
    "city": [],
    "item": {
      "community_name": "海信苑",
      "region": "宜秀区",
      "city": "安庆",
      "state": "安徽省",
      "postal_code": "246000",
      "year_built": null,
      "community_type": "普通住宅",
      "property_management_company": null,
      "description": null,
      "created_by": "meida",
      "updated_by": "meida",
      "created_at": "2024-10-26 02:42:22",
      "updated_at": "2024-10-26 02:42:22"
    }
  },
  {
    "id": "B022C04AVY",
    "name": "海燕北村",
    "district": "安徽省安庆市宜秀区",
    "adcode": "340811",
    "location": [117.054007, 30.541269],
    "address": "中兴大道",
    "typecode": "120302",
    "city": [],
    "item": {
      "community_name": "海燕北村",
      "region": "大观区",
      "city": "安庆",
      "state": "安徽省",
      "postal_code": "246000",
      "year_built": 1996,
      "community_type": "普通住宅",
      "property_management_company": null,
      "description": null,
      "created_by": "meida",
      "updated_by": "meida",
      "created_at": "2024-11-14 05:10:37",
      "updated_at": "2024-11-14 05:10:37"
    }
  },
  {
    "id": "B0FFJLJ528",
    "name": "清华府",
    "district": "安徽省安庆市宜秀区",
    "adcode": "340811",
    "location": [116.979912, 30.620674],
    "address": "龙珠路与龙城路交叉口西南240米",
    "typecode": "120300",
    "city": [],
    "item": {
      "community_name": "清华府",
      "region": "大观区",
      "city": "安庆",
      "state": "安徽省",
      "postal_code": "246000",
      "year_built": null,
      "community_type": "普通住宅",
      "property_management_company": null,
      "description": "龙山一中旁",
      "created_by": "meida",
      "updated_by": "meida",
      "created_at": "2025-04-23 06:33:24",
      "updated_at": "2025-04-23 06:33:24"
    }
  },
  {
    "id": "B0FFF2F7W6",
    "name": "滨江至尊",
    "district": "安徽省安庆市迎江区",
    "adcode": "340802",
    "location": [117.064564, 30.505212],
    "address": "棋盘山路21号",
    "typecode": "120302",
    "city": [],
    "item": {
      "community_name": "滨江至尊",
      "region": "迎江区",
      "city": "安庆",
      "state": "安徽省",
      "postal_code": "246000",
      "year_built": 2012,
      "community_type": "普通住宅",
      "property_management_company": null,
      "description": null,
      "created_by": "meida",
      "updated_by": "meida",
      "created_at": "2025-05-07 11:14:10",
      "updated_at": "2025-05-07 11:14:10"
    }
  },
  {
    "id": "B0FFFYSG50",
    "name": "滨江苑回民餐馆(滨江苑小区店)",
    "district": "安徽省安庆市大观区",
    "adcode": "340803",
    "location": [117.037174, 30.502593],
    "address": "滨江苑小区门口3号门面",
    "typecode": "050121",
    "city": [],
    "item": {
      "community_name": "滨江苑",
      "region": "大观区",
      "city": "安庆",
      "state": "安徽省",
      "postal_code": "246000",
      "year_built": 1990,
      "community_type": "普通住宅",
      "property_management_company": null,
      "description": null,
      "created_by": "meida",
      "updated_by": "meida",
      "created_at": "2025-04-26 08:57:43",
      "updated_at": "2025-04-26 08:57:43"
    }
  },
  {
    "id": "",
    "name": "火车站车务段",
    "district": "",
    "adcode": "",
    "location": "",
    "address": [],
    "typecode": [],
    "city": [],
    "item": {
      "community_name": "火车站车务段",
      "region": "宜秀区",
      "city": "安庆",
      "state": "安徽省",
      "postal_code": "246000",
      "year_built": 2003,
      "community_type": "普通住宅",
      "property_management_company": null,
      "description": null,
      "created_by": "meida",
      "updated_by": "meida",
      "created_at": "2024-10-31 09:33:16",
      "updated_at": "2024-10-31 09:33:16"
    }
  },
  {
    "id": "B0FFG17DJC",
    "name": "金回回牛肉面馆",
    "district": "安徽省安庆市大观区",
    "adcode": "340803",
    "location": [117.032151, 30.504512],
    "address": "玉琳路布市6号区6幢5号、6号门面",
    "typecode": "050121",
    "city": [],
    "item": {
      "community_name": "玉琳布市",
      "region": "大观区",
      "city": "安庆",
      "state": "安徽省",
      "postal_code": "246000",
      "year_built": 1990,
      "community_type": "普通住宅",
      "property_management_company": null,
      "description": null,
      "created_by": "meida",
      "updated_by": "meida",
      "created_at": "2025-04-11 02:49:16",
      "updated_at": "2025-04-11 02:49:16"
    }
  },
  {
    "id": "B0HGTZ78LT",
    "name": "玉琳路",
    "district": "安徽省安庆市大观区",
    "adcode": "340803",
    "location": [117.03452, 30.504531],
    "address": [],
    "typecode": "190700",
    "city": [],
    "item": {
      "community_name": "玉琳路",
      "region": "大观区",
      "city": "安庆",
      "state": "安徽省",
      "postal_code": "246000",
      "year_built": 1990,
      "community_type": "普通住宅",
      "property_management_company": null,
      "description": null,
      "created_by": "meida",
      "updated_by": "meida",
      "created_at": "2025-04-26 05:27:33",
      "updated_at": "2025-04-26 05:27:33"
    }
  },
  {
    "id": "B0FFG1IDCJ",
    "name": "瓜园小区",
    "district": "安徽省安庆市宜秀区",
    "adcode": "340811",
    "location": [117.03683, 30.555862],
    "address": "迎宾西路428号附近",
    "typecode": "120302",
    "city": [],
    "item": {
      "community_name": "瓜园小区",
      "region": "宜秀区",
      "city": "安庆",
      "state": "安徽省",
      "postal_code": "246000",
      "year_built": 2007,
      "community_type": "普通住宅",
      "property_management_company": null,
      "description": null,
      "created_by": "meida",
      "updated_by": "meida",
      "created_at": "2024-10-26 10:07:34",
      "updated_at": "2024-10-26 10:07:34"
    }
  },
  {
    "id": "B0J0HBTEK5",
    "name": "白中小区5栋",
    "district": "安徽省安庆市宜秀区",
    "adcode": "340811",
    "location": [117.053712, 30.540212],
    "address": "中兴大街109号",
    "typecode": "190403",
    "city": [],
    "item": {
      "community_name": "白中小区",
      "region": "大观区",
      "city": "安庆",
      "state": "安徽省",
      "postal_code": "246000",
      "year_built": 1999,
      "community_type": "普通住宅",
      "property_management_company": null,
      "description": null,
      "created_by": "meida",
      "updated_by": "meida",
      "created_at": "2025-04-26 08:52:17",
      "updated_at": "2025-04-26 08:52:17"
    }
  },
  {
    "id": "B0KUP76L6J",
    "name": "白云小区",
    "district": "安徽省安庆市大观区",
    "adcode": "340803",
    "location": [117.031827, 30.506781],
    "address": "德宽路与观音街交叉口东200米",
    "typecode": "120302",
    "city": [],
    "item": {
      "community_name": "白云小区",
      "region": "大观区",
      "city": "安庆",
      "state": "安徽省",
      "postal_code": "246000",
      "year_built": 1994,
      "community_type": "普通住宅",
      "property_management_company": null,
      "description": null,
      "created_by": "meida",
      "updated_by": "meida",
      "created_at": "2025-07-05 07:05:43",
      "updated_at": "2025-07-05 07:05:43"
    }
  },
  {
    "id": "B0FFFDH0RR",
    "name": "皖宁公寓",
    "district": "安徽省安庆市迎江区",
    "adcode": "340802",
    "location": [117.041069, 30.50712],
    "address": "人民路520号正南方向40米",
    "typecode": "120203",
    "city": [],
    "item": {
      "community_name": "皖宁公寓",
      "region": "大观区",
      "city": "安庆",
      "state": "安徽省",
      "postal_code": "246000",
      "year_built": 2007,
      "community_type": "普通住宅",
      "property_management_company": null,
      "description": null,
      "created_by": "meida",
      "updated_by": "meida",
      "created_at": "2025-03-28 01:41:54",
      "updated_at": "2025-03-28 01:41:54"
    }
  },
  {
    "id": "B0K6R7BRSS",
    "name": "皖江华府",
    "district": "安徽省安庆市宜秀区",
    "adcode": "340811",
    "location": [117.041958, 30.545776],
    "address": "规划二路与天柱山西路交叉口南220米",
    "typecode": "120302",
    "city": [],
    "item": {
      "community_name": "皖江华府",
      "region": "大观区",
      "city": "安庆",
      "state": "安徽省",
      "postal_code": "246000",
      "year_built": null,
      "community_type": "普通住宅",
      "property_management_company": null,
      "description": null,
      "created_by": "meida",
      "updated_by": "meida",
      "created_at": "2025-04-26 08:39:56",
      "updated_at": "2025-04-26 08:39:56"
    }
  },
  {
    "id": "B0FFF0ANLK",
    "name": "石化一村",
    "district": "安徽省安庆市大观区",
    "adcode": "340803",
    "location": [117.037864, 30.529618],
    "address": "石化4路37号西北方向180米",
    "typecode": "120302",
    "city": [],
    "item": {
      "community_name": "石化一村",
      "region": "大观区",
      "city": "安庆",
      "state": "安徽省",
      "postal_code": "246000",
      "year_built": null,
      "community_type": "普通住宅",
      "property_management_company": null,
      "description": null,
      "created_by": "meida",
      "updated_by": "钱平香",
      "created_at": "2025-05-07 07:21:11",
      "updated_at": "2025-07-10 09:53:06"
    }
  },
  {
    "id": "B0KUP79B51",
    "name": "石化三村",
    "district": "安徽省安庆市大观区",
    "adcode": "340803",
    "location": [117.033237, 30.517279],
    "address": "蔡山路与油化二路交叉口西南340米",
    "typecode": "120302",
    "city": [],
    "item": {
      "community_name": "石化三村",
      "region": "大观区",
      "city": "安庆",
      "state": "安徽省",
      "postal_code": "246000",
      "year_built": 1985,
      "community_type": "普通住宅",
      "property_management_company": null,
      "description": null,
      "created_by": "meida",
      "updated_by": "meida",
      "created_at": "2025-05-07 10:55:49",
      "updated_at": "2025-05-07 10:55:49"
    }
  },
  {
    "id": "B0J3FH8PTA",
    "name": "石化五村",
    "district": "安徽省安庆市大观区",
    "adcode": "340803",
    "location": [117.027174, 30.514857],
    "address": "蔡山路151号",
    "typecode": "120000",
    "city": [],
    "item": {
      "community_name": "石化五村",
      "region": "大观区",
      "city": "安庆",
      "state": "安徽省",
      "postal_code": "246000",
      "year_built": 1985,
      "community_type": "普通住宅",
      "property_management_company": null,
      "description": null,
      "created_by": "meida",
      "updated_by": "meida",
      "created_at": "2025-03-07 01:20:50",
      "updated_at": "2025-03-07 01:20:50"
    }
  },
  {
    "id": "B0FFGMH7JT",
    "name": "石化四村",
    "district": "安徽省安庆市大观区",
    "adcode": "340803",
    "location": [117.043115, 30.528018],
    "address": "石化四路35号",
    "typecode": "120302",
    "city": [],
    "item": {
      "community_name": "石化四村",
      "region": "大观区",
      "city": "安庆",
      "state": "安徽省",
      "postal_code": "246000",
      "year_built": null,
      "community_type": "普通住宅",
      "property_management_company": null,
      "description": null,
      "created_by": "meida",
      "updated_by": "meida",
      "created_at": "2025-04-29 01:50:59",
      "updated_at": "2025-04-29 01:50:59"
    }
  },
  {
    "id": "B0FFF87QGC",
    "name": "安庆石化大湖生活区南区32栋",
    "district": "安徽省安庆市大观区",
    "adcode": "340803",
    "location": [117.050331, 30.526763],
    "address": "双岗路5号",
    "typecode": "190403",
    "city": [],
    "item": {
      "community_name": "石化大湖南区",
      "region": "宜秀区",
      "city": "安庆",
      "state": "安徽省",
      "postal_code": "246000",
      "year_built": 1994,
      "community_type": "普通住宅",
      "property_management_company": null,
      "description": "双学区",
      "created_by": "meida",
      "updated_by": "meida",
      "created_at": "2024-11-23 06:48:10",
      "updated_at": "2024-11-23 06:48:10"
    }
  },
  {
    "id": "B022C0SYSH",
    "name": "安庆石化大湖生活区教师楼",
    "district": "安徽省安庆市大观区",
    "adcode": "340803",
    "location": [117.05151, 30.525354],
    "address": "市府路与市府路南一巷交叉口北160米",
    "typecode": "120303",
    "city": [],
    "item": {
      "community_name": "石化大湖教师楼",
      "region": "大观区",
      "city": "安庆",
      "state": "安徽省",
      "postal_code": "246000",
      "year_built": 1996,
      "community_type": "普通住宅",
      "property_management_company": "亿和物业",
      "description": null,
      "created_by": "meida",
      "updated_by": "meida",
      "created_at": "2025-07-03 08:16:53",
      "updated_at": "2025-07-03 08:16:53"
    }
  },
  {
    "id": "B0FFG4TPS7",
    "name": "安庆石化大湖生活区北区",
    "district": "安徽省安庆市大观区",
    "adcode": "340803",
    "location": [117.049027, 30.530434],
    "address": "水上公园路2-1号",
    "typecode": "120302",
    "city": [],
    "item": {
      "community_name": "石化大湖新北区",
      "region": "宜秀区",
      "city": "安庆",
      "state": "安徽省",
      "postal_code": "246000",
      "year_built": 1993,
      "community_type": "普通住宅",
      "property_management_company": "",
      "description": null,
      "created_by": "meida",
      "updated_by": "meida",
      "created_at": "2024-11-14 05:18:55",
      "updated_at": "2025-06-25 08:25:19"
    }
  },
  {
    "id": "B0GK0S9SSS",
    "name": "安庆石化大湖生活区老北区",
    "district": "安徽省安庆市大观区",
    "adcode": "340803",
    "location": [117.047748, 30.52869],
    "address": "燎原路与军械厂巷交叉口东北140米",
    "typecode": "120302",
    "city": [],
    "item": {
      "community_name": "石化大湖老北区",
      "region": "大观区",
      "city": "安庆",
      "state": "安徽省",
      "postal_code": "246000",
      "year_built": 1993,
      "community_type": "普通住宅",
      "property_management_company": "亿和物业",
      "description": null,
      "created_by": "meida",
      "updated_by": "meida",
      "created_at": "2025-07-17 05:26:06",
      "updated_at": "2025-07-17 05:26:06"
    }
  },
  {
    "id": "B022C0S0HP",
    "name": "石化菱北生活区",
    "district": "安徽省安庆市宜秀区",
    "adcode": "340811",
    "location": [117.064484, 30.535997],
    "address": "石化一小对面",
    "typecode": "120302",
    "city": [],
    "item": {
      "community_name": "石化菱北",
      "region": "宜秀区",
      "city": "安庆",
      "state": "安徽省",
      "postal_code": "246000",
      "year_built": 1999,
      "community_type": "普通住宅",
      "property_management_company": "亿和物业",
      "description": "封闭小区",
      "created_by": "meida",
      "updated_by": "meida",
      "created_at": "2024-10-05 09:54:33",
      "updated_at": "2025-03-18 01:46:59"
    }
  },
  {
    "id": "B022C0S1Z2",
    "name": "安庆市开发区怡人花店",
    "district": "安徽省安庆市宜秀区",
    "adcode": "340811",
    "location": [117.063254, 30.534468],
    "address": "石化菱南3号门面",
    "typecode": "060501",
    "city": [],
    "item": {
      "community_name": "石化菱南",
      "region": "宜秀区",
      "city": "安庆",
      "state": "安徽省",
      "postal_code": "246000",
      "year_built": 2003,
      "community_type": "普通住宅",
      "property_management_company": null,
      "description": null,
      "created_by": "meida",
      "updated_by": "meida",
      "created_at": "2025-03-28 01:44:56",
      "updated_at": "2025-03-28 01:44:56"
    }
  },
  {
    "id": "B0FFJ1YO7S",
    "name": "碧桂园中梁东方印",
    "district": "安徽省安庆市宜秀区",
    "adcode": "340811",
    "location": [117.102148, 30.55487],
    "address": "独秀大道与中山大道交口",
    "typecode": "120302",
    "city": [],
    "item": {
      "community_name": "碧桂园。中梁东方印",
      "region": "宜秀区",
      "city": "安庆",
      "state": "安徽省",
      "postal_code": "246000",
      "year_built": 2020,
      "community_type": "普通住宅",
      "property_management_company": null,
      "description": null,
      "created_by": "meida",
      "updated_by": "meida",
      "created_at": "2025-05-17 07:36:11",
      "updated_at": "2025-05-17 07:36:11"
    }
  },
  {
    "id": "B0G335VXCT",
    "name": "碧桂园·凤凰新天地",
    "district": "安徽省安庆市迎江区",
    "adcode": "340802",
    "location": [117.141841, 30.529258],
    "address": "港口路78附近皖江大道北侧",
    "typecode": "120302",
    "city": [],
    "item": {
      "community_name": "碧桂园。凤凰新天地",
      "region": "迎江区",
      "city": "安庆",
      "state": "安徽省",
      "postal_code": "246000",
      "year_built": 2015,
      "community_type": "公寓",
      "property_management_company": null,
      "description": null,
      "created_by": "meida",
      "updated_by": "meida",
      "created_at": "2025-06-08 06:16:44",
      "updated_at": "2025-06-08 06:16:44"
    }
  },
  {
    "id": "B0FFIBDJZ0",
    "name": "碧桂园·时代之光",
    "district": "安徽省安庆市迎江区",
    "adcode": "340802",
    "location": [117.121834, 30.540603],
    "address": "潜江路与祥和路交汇处东北角",
    "typecode": "120302",
    "city": [],
    "item": {
      "community_name": "碧桂园。时代之光",
      "region": "宜秀区",
      "city": "安庆",
      "state": "安徽省",
      "postal_code": "246000",
      "year_built": 2020,
      "community_type": "普通住宅",
      "property_management_company": null,
      "description": null,
      "created_by": "meida",
      "updated_by": "meida",
      "created_at": "2025-05-17 07:03:07",
      "updated_at": "2025-05-17 07:03:07"
    }
  },
  {
    "id": "B0FFHEJSQL",
    "name": "安庆碧桂园秦潭凤舞",
    "district": "安徽省安庆市迎江区",
    "adcode": "340802",
    "location": [117.146017, 30.530851],
    "address": "龙狮桥乡皖江大道1198号",
    "typecode": "120301",
    "city": [],
    "item": {
      "community_name": "碧桂园。秦谭凤舞",
      "region": "迎江区",
      "city": "安庆",
      "state": "安徽省",
      "postal_code": "246000",
      "year_built": 2013,
      "community_type": "别墅",
      "property_management_company": "碧桂园",
      "description": "小区里有别墅有洋房",
      "created_by": "meida",
      "updated_by": "meida",
      "created_at": "2025-04-23 05:31:59",
      "updated_at": "2025-04-23 05:31:59"
    }
  },
  {
    "id": "B0FFG8U91Z",
    "name": "安庆碧桂园1号公园",
    "district": "安徽省安庆市迎江区",
    "adcode": "340802",
    "location": [117.142792, 30.524774],
    "address": "皖江大道1198号",
    "typecode": "120302",
    "city": [],
    "item": {
      "community_name": "碧桂园一号公园",
      "region": "迎江区",
      "city": "安庆",
      "state": "安徽省",
      "postal_code": "246000",
      "year_built": 2017,
      "community_type": "普通住宅",
      "property_management_company": "碧桂园物业",
      "description": null,
      "created_by": "meida",
      "updated_by": "meida",
      "created_at": "2025-01-15 11:05:33",
      "updated_at": "2025-01-15 11:05:33"
    }
  },
  {
    "id": "B0FFKCFKAE",
    "name": "安庆碧桂园凤凰湾",
    "district": "安徽省安庆市迎江区",
    "adcode": "340802",
    "location": [117.146466, 30.529436],
    "address": "龙狮桥乡皖江大道碧桂园1号公园斜对面",
    "typecode": "120302",
    "city": [],
    "item": {
      "community_name": "碧桂园凤凰湾",
      "region": "迎江区",
      "city": "安庆",
      "state": "安徽省",
      "postal_code": "246000",
      "year_built": 2019,
      "community_type": "普通住宅",
      "property_management_company": "碧桂园物业",
      "description": null,
      "created_by": "meida",
      "updated_by": "meida",
      "created_at": "2024-11-08 08:21:54",
      "updated_at": "2024-11-08 08:21:54"
    }
  },
  {
    "id": "B0FFF3LL52",
    "name": "安庆碧桂园山水云间",
    "district": "安徽省安庆市迎江区",
    "adcode": "340802",
    "location": [117.134635, 30.522551],
    "address": "皖江大道与港口路交叉口西南460米",
    "typecode": "120300",
    "city": [],
    "item": {
      "community_name": "碧桂园山水云间",
      "region": "迎江区",
      "city": "安庆",
      "state": "安徽省",
      "postal_code": "246000",
      "year_built": 2008,
      "community_type": "普通住宅",
      "property_management_company": "碧桂园物业",
      "description": null,
      "created_by": "meida",
      "updated_by": "meida",
      "created_at": "2025-04-26 06:48:33",
      "updated_at": "2025-04-26 06:48:33"
    }
  },
  {
    "id": "B0FFJHFC0F",
    "name": "祥和北苑",
    "district": "安徽省安庆市宜秀区",
    "adcode": "340811",
    "location": [117.106862, 30.541426],
    "address": "祥和路恒禾东尚104号",
    "typecode": "120302",
    "city": [],
    "item": {
      "community_name": "祥和北苑",
      "region": "宜秀区",
      "city": "安庆",
      "state": "安徽省",
      "postal_code": "246000",
      "year_built": 2019,
      "community_type": "普通住宅",
      "property_management_company": null,
      "description": "本小区是还建房",
      "created_by": "meida",
      "updated_by": "meida",
      "created_at": "2024-09-28 00:30:02",
      "updated_at": "2025-07-03 08:54:23"
    }
  },
  {
    "id": "B0FFLDS60S",
    "name": "祥和南苑",
    "district": "安徽省安庆市宜秀区",
    "adcode": "340811",
    "location": [117.106692, 30.537748],
    "address": "祥和路与晴岚路交叉口东南240米",
    "typecode": "120302",
    "city": [],
    "item": {
      "community_name": "祥和南苑",
      "region": "宜秀区",
      "city": "安庆",
      "state": "安徽省",
      "postal_code": "246000",
      "year_built": null,
      "community_type": "普通住宅",
      "property_management_company": null,
      "description": "拆迁还建小区",
      "created_by": "meida",
      "updated_by": "meida",
      "created_at": "2024-10-11 04:37:02",
      "updated_at": "2024-10-11 04:37:02"
    }
  },
  {
    "id": "B022C05S2D",
    "name": "雨润秀水华庭(菱湖北路)",
    "district": "安徽省安庆市宜秀区",
    "adcode": "340811",
    "location": [117.057319, 30.533638],
    "address": "菱湖北路60号",
    "typecode": "120302",
    "city": [],
    "item": {
      "community_name": "秀水华庭",
      "region": "大观区",
      "city": "安庆",
      "state": "安徽省",
      "postal_code": "246000",
      "year_built": 2003,
      "community_type": "普通住宅",
      "property_management_company": null,
      "description": null,
      "created_by": "meida",
      "updated_by": "meida",
      "created_at": "2025-06-08 06:12:55",
      "updated_at": "2025-06-08 06:12:55"
    }
  },
  {
    "id": "B0FFGQC33C",
    "name": "程良路",
    "district": "安徽省安庆市大观区",
    "adcode": "340803",
    "location": [117.032992, 30.504032],
    "address": [],
    "typecode": "190301",
    "city": [],
    "item": {
      "community_name": "程良路",
      "region": "大观区",
      "city": "安庆",
      "state": "安徽省",
      "postal_code": "246000",
      "year_built": 1993,
      "community_type": "普通住宅",
      "property_management_company": null,
      "description": null,
      "created_by": "meida",
      "updated_by": "meida",
      "created_at": "2025-05-15 09:10:54",
      "updated_at": "2025-05-15 09:10:54"
    }
  },
  {
    "id": "BZA7Q2001U",
    "name": "站南路",
    "district": "安徽省安庆市迎江区",
    "adcode": "340802",
    "location": [117.141798, 30.557527],
    "address": [],
    "typecode": "190301",
    "city": [],
    "item": {
      "community_name": "站南路",
      "region": "宜秀区",
      "city": "安庆",
      "state": "安徽省",
      "postal_code": "246000",
      "year_built": 1995,
      "community_type": "普通住宅",
      "property_management_company": null,
      "description": null,
      "created_by": "meida",
      "updated_by": "meida",
      "created_at": "2024-12-07 03:30:57",
      "updated_at": "2024-12-07 03:30:57"
    }
  },
  {
    "id": "B0FFI5X28R",
    "name": "站西花园",
    "district": "江西省南昌市红谷滩区",
    "adcode": "360113",
    "location": [115.783373, 28.629873],
    "address": "达智路与平安西二街交叉口西北120米",
    "typecode": "120302",
    "city": [],
    "item": {
      "community_name": "站西花园",
      "region": "宜秀区",
      "city": "安庆",
      "state": "安徽省",
      "postal_code": "246000",
      "year_built": null,
      "community_type": "普通住宅",
      "property_management_company": null,
      "description": null,
      "created_by": "meida",
      "updated_by": "meida",
      "created_at": "2025-03-07 07:19:30",
      "updated_at": "2025-03-07 07:19:30"
    }
  },
  {
    "id": "B0FFL24X2P",
    "name": "竹苑小区",
    "district": "安徽省安庆市宜秀区",
    "adcode": "340811",
    "location": [117.060596, 30.541425],
    "address": "天柱山西路与平安路交叉口西南约180米",
    "typecode": "120302",
    "city": [],
    "item": {
      "community_name": "竹苑小区",
      "region": "宜秀区",
      "city": "安庆",
      "state": "安徽省",
      "postal_code": "246000",
      "year_built": 2015,
      "community_type": "普通住宅",
      "property_management_company": null,
      "description": "拆迁还建房   里面有多层也有高层 ",
      "created_by": "meida",
      "updated_by": "meida",
      "created_at": "2024-10-12 06:02:05",
      "updated_at": "2024-10-12 06:02:05"
    }
  },
  {
    "id": "B022C02C8Q",
    "name": "红旗小区",
    "district": "安徽省安庆市迎江区",
    "adcode": "340802",
    "location": [117.081381, 30.512622],
    "address": "龙狮桥乡华中路309号",
    "typecode": "120302",
    "city": [],
    "item": {
      "community_name": "红旗小区",
      "region": "迎江区",
      "city": "安庆",
      "state": "安徽省",
      "postal_code": "246000",
      "year_built": 1998,
      "community_type": "普通住宅",
      "property_management_company": null,
      "description": null,
      "created_by": "meida",
      "updated_by": "meida",
      "created_at": "2025-05-15 08:57:08",
      "updated_at": "2025-05-15 08:57:08"
    }
  },
  {
    "id": "B0I2KRKOOS",
    "name": "纱帽村",
    "district": "安徽省安庆市宿松县",
    "adcode": "340826",
    "location": [116.333659, 30.197917],
    "address": [],
    "typecode": "190109",
    "city": [],
    "item": {
      "community_name": "纱帽公寓",
      "region": "宜秀区",
      "city": "安庆",
      "state": "安徽省",
      "postal_code": "246000",
      "year_built": 1996,
      "community_type": "普通住宅",
      "property_management_company": null,
      "description": null,
      "created_by": "meida",
      "updated_by": "meida",
      "created_at": "2024-10-13 01:28:30",
      "updated_at": "2024-10-13 01:28:30"
    }
  },
  {
    "id": "B022C05S2V",
    "name": "纺织西村小区",
    "district": "安徽省安庆市大观区",
    "adcode": "340803",
    "location": [117.045882, 30.523378],
    "address": "纺织西路14号",
    "typecode": "120302",
    "city": [],
    "item": {
      "community_name": "纺织西村",
      "region": "大观区",
      "city": "安庆",
      "state": "安徽省",
      "postal_code": "246000",
      "year_built": 1994,
      "community_type": "普通住宅",
      "property_management_company": null,
      "description": null,
      "created_by": "meida",
      "updated_by": "meida",
      "created_at": "2025-07-08 07:41:03",
      "updated_at": "2025-07-08 07:41:03"
    }
  },
  {
    "id": "B0J39HD6N2",
    "name": "绿叶小区",
    "district": "安徽省安庆市宜秀区",
    "adcode": "340811",
    "location": [117.059826, 30.541613],
    "address": "中兴大街132正东方向80米",
    "typecode": "120302",
    "city": [],
    "item": {
      "community_name": "绿叶小区",
      "region": "宜秀区",
      "city": "安庆",
      "state": "安徽省",
      "postal_code": "246000",
      "year_built": 1999,
      "community_type": "住宅",
      "property_management_company": null,
      "description": null,
      "created_by": "蒋丽芳",
      "updated_by": "meida",
      "created_at": "2024-09-27 02:48:55",
      "updated_at": "2024-12-07 03:14:02"
    }
  },
  {
    "id": "B022C0S0MK",
    "name": "绿地·迎江世纪城卡莎公馆",
    "district": "安徽省安庆市迎江区",
    "adcode": "340802",
    "location": [117.107652, 30.521914],
    "address": "皖江大道99号",
    "typecode": "120302",
    "city": [],
    "item": {
      "community_name": "绿地一期",
      "region": "迎江区",
      "city": "安庆",
      "state": "安徽省",
      "postal_code": "246000",
      "year_built": 2013,
      "community_type": "普通住宅",
      "property_management_company": "绿地物业",
      "description": null,
      "created_by": "meida",
      "updated_by": "meida",
      "created_at": "2025-03-07 06:52:38",
      "updated_at": "2025-03-07 06:52:38"
    }
  },
  {
    "id": "B0JG9H7ZWH",
    "name": "绿地·迎江世纪城云公馆",
    "district": "安徽省安庆市迎江区",
    "adcode": "340802",
    "location": [117.101293, 30.524548],
    "address": "独秀大道与康熙河路交叉口东南180米",
    "typecode": "120302",
    "city": [],
    "item": {
      "community_name": "绿地云公馆",
      "region": "迎江区",
      "city": "安庆",
      "state": "安徽省",
      "postal_code": "246000",
      "year_built": 2020,
      "community_type": "公寓",
      "property_management_company": "绿地物业",
      "description": null,
      "created_by": "meida",
      "updated_by": "meida",
      "created_at": "2024-10-24 01:54:04",
      "updated_at": "2024-10-24 01:54:04"
    }
  },
  {
    "id": "B0LG5HUV2E",
    "name": "绿地启航社",
    "district": "安徽省安庆市迎江区",
    "adcode": "340802",
    "location": [117.104387, 30.52001],
    "address": "皖江大道与晴岚路交叉口西100米",
    "typecode": "120201",
    "city": [],
    "item": {
      "community_name": "绿地启航社",
      "region": "迎江区",
      "city": "安庆",
      "state": "安徽省",
      "postal_code": "246000",
      "year_built": 2013,
      "community_type": "写字楼",
      "property_management_company": "绿地物业",
      "description": null,
      "created_by": "meida",
      "updated_by": "meida",
      "created_at": "2025-03-20 07:22:04",
      "updated_at": "2025-03-20 07:22:04"
    }
  },
  {
    "id": "B0FFL0BQC3",
    "name": "绿地·迎江世纪城巴赫公馆A1栋",
    "district": "安徽省安庆市迎江区",
    "adcode": "340802",
    "location": [117.107213, 30.523258],
    "address": "龙狮桥乡皖江大道绿地二期(卡莎公馆旁)迎江世纪城幼儿园",
    "typecode": "190403",
    "city": [],
    "item": {
      "community_name": "绿地巴赫公馆",
      "region": "迎江区",
      "city": "安庆",
      "state": "安徽省",
      "postal_code": "246000",
      "year_built": 2012,
      "community_type": "普通住宅",
      "property_management_company": "绿地物业",
      "description": null,
      "created_by": "meida",
      "updated_by": "meida",
      "created_at": "2024-11-26 06:55:21",
      "updated_at": "2024-11-26 06:55:21"
    }
  },
  {
    "id": "B0FFKK8RJ8",
    "name": "绿地·蓝海",
    "district": "安徽省安庆市迎江区",
    "adcode": "340802",
    "location": [117.111967, 30.522377],
    "address": "皖江大道与顺安路交叉口",
    "typecode": "120203",
    "city": [],
    "item": {
      "community_name": "绿地微公馆",
      "region": "迎江区",
      "city": "安庆",
      "state": "安徽省",
      "postal_code": "246000",
      "year_built": 2017,
      "community_type": "住宅",
      "property_management_company": "绿地物业",
      "description": "公寓  只有一栋",
      "created_by": "meida",
      "updated_by": "meida",
      "created_at": "2024-10-01 02:49:31",
      "updated_at": "2024-10-01 02:49:31"
    }
  },
  {
    "id": "B0KRP7QEKY",
    "name": "凤鸣公馆",
    "district": "安徽省安庆市迎江区",
    "adcode": "340802",
    "location": [117.1561, 30.561895],
    "address": "高琦小学圆梦新区分校对面",
    "typecode": "120302",
    "city": [],
    "item": {
      "community_name": "绿地新里城。凤鸣公馆",
      "region": "迎江区",
      "city": "安庆",
      "state": "安徽省",
      "postal_code": "246000",
      "year_built": 2022,
      "community_type": "普通住宅",
      "property_management_company": "绿地物业",
      "description": "新小区",
      "created_by": "meida",
      "updated_by": "meida",
      "created_at": "2025-04-23 04:56:42",
      "updated_at": "2025-04-23 04:56:42"
    }
  },
  {
    "id": "B0LGTBU1H2",
    "name": "绿地新里城翰林公馆Y2栋",
    "district": "安徽省安庆市迎江区",
    "adcode": "340802",
    "location": [117.153678, 30.559193],
    "address": "迎宾路与老峰路交口向北500米绿地新里城",
    "typecode": "190403",
    "city": [],
    "item": {
      "community_name": "绿地新里城。翰林公馆",
      "region": "迎江区",
      "city": "安庆",
      "state": "安徽省",
      "postal_code": "246000",
      "year_built": 2021,
      "community_type": "普通住宅",
      "property_management_company": "绿地物业",
      "description": null,
      "created_by": "meida",
      "updated_by": "meida",
      "created_at": "2025-04-23 06:39:24",
      "updated_at": "2025-04-23 06:39:24"
    }
  },
  {
    "id": "B0FFKK8RJ8",
    "name": "绿地·蓝海",
    "district": "安徽省安庆市迎江区",
    "adcode": "340802",
    "location": [117.111967, 30.522377],
    "address": "皖江大道与顺安路交叉口",
    "typecode": "120203",
    "city": [],
    "item": {
      "community_name": "绿地蓝海",
      "region": "迎江区",
      "city": "安庆",
      "state": "安徽省",
      "postal_code": "246000",
      "year_built": 2014,
      "community_type": "普通住宅",
      "property_management_company": null,
      "description": null,
      "created_by": "meida",
      "updated_by": "meida",
      "created_at": "2025-07-12 08:36:14",
      "updated_at": "2025-07-12 08:36:14"
    }
  },
  {
    "id": "B0IDM9YT0U",
    "name": "置地·天玺二期",
    "district": "安徽省安庆市迎江区",
    "adcode": "340802",
    "location": [117.113371, 30.50879],
    "address": "晴岚路316号",
    "typecode": "120302",
    "city": [],
    "item": {
      "community_name": "置地天熙二期",
      "region": "迎江区",
      "city": "安庆",
      "state": "安徽省",
      "postal_code": "246000",
      "year_built": 2016,
      "community_type": "普通住宅",
      "property_management_company": null,
      "description": null,
      "created_by": "meida",
      "updated_by": "meida",
      "created_at": "2025-07-12 09:45:34",
      "updated_at": "2025-07-12 09:45:34"
    }
  },
  {
    "id": "B0FFHR1JQB",
    "name": "置地·康熙左岸",
    "district": "安徽省安庆市迎江区",
    "adcode": "340802",
    "location": [117.098545, 30.523536],
    "address": "启航路",
    "typecode": "120302",
    "city": [],
    "item": {
      "community_name": "置地康熙左岸",
      "region": "迎江区",
      "city": "安庆",
      "state": "安徽省",
      "postal_code": "246000",
      "year_built": 2020,
      "community_type": "普通住宅",
      "property_management_company": null,
      "description": null,
      "created_by": "meida",
      "updated_by": "meida",
      "created_at": "2025-07-03 08:28:19",
      "updated_at": "2025-07-03 08:28:19"
    }
  },
  {
    "id": "B0FFGKLQQ1",
    "name": "置地百悦府",
    "district": "安徽省安庆市宜秀区",
    "adcode": "340811",
    "location": [117.102107, 30.531157],
    "address": "振风大道与独秀大道交叉口东北200米",
    "typecode": "120302",
    "city": [],
    "item": {
      "community_name": "置地百悦府",
      "region": "迎江区",
      "city": "安庆",
      "state": "安徽省",
      "postal_code": "246000",
      "year_built": 2020,
      "community_type": "普通住宅",
      "property_management_company": null,
      "description": "高档小区   环境好",
      "created_by": "meida",
      "updated_by": "meida",
      "created_at": "2024-10-16 04:29:14",
      "updated_at": "2024-10-16 04:29:14"
    }
  },
  {
    "id": "B0FFJH4CXG",
    "name": "置地皖江四季",
    "district": "安徽省安庆市迎江区",
    "adcode": "340802",
    "location": [117.111966, 30.517737],
    "address": "育才路与顺安路交叉口西南140米",
    "typecode": "120302",
    "city": [],
    "item": {
      "community_name": "置地皖江四季",
      "region": "迎江区",
      "city": "安庆",
      "state": "安徽省",
      "postal_code": "246000",
      "year_built": 2018,
      "community_type": "普通住宅",
      "property_management_company": null,
      "description": null,
      "created_by": "meida",
      "updated_by": "meida",
      "created_at": "2025-06-14 11:51:04",
      "updated_at": "2025-06-14 11:51:04"
    }
  },
  {
    "id": "B022C0S25A",
    "name": "美格明居",
    "district": "安徽省安庆市宜秀区",
    "adcode": "340811",
    "location": [117.075157, 30.534278],
    "address": "回祥东路5号",
    "typecode": "120302",
    "city": [],
    "item": {
      "community_name": "美格名居",
      "region": "宜秀区",
      "city": "安庆",
      "state": "安徽省",
      "postal_code": "246000",
      "year_built": 2009,
      "community_type": "普通住宅",
      "property_management_company": null,
      "description": null,
      "created_by": "meida",
      "updated_by": "meida",
      "created_at": "2024-11-15 05:42:54",
      "updated_at": "2024-11-15 05:42:54"
    }
  },
  {
    "id": "B0FFF2JUZ7",
    "name": "联富新苑",
    "district": "安徽省安庆市宜秀区",
    "adcode": "340811",
    "location": [117.054692, 30.545583],
    "address": "天柱山西路98号",
    "typecode": "120302",
    "city": [],
    "item": {
      "community_name": "联富新苑",
      "region": "大观区",
      "city": "安庆",
      "state": "安徽省",
      "postal_code": "246000",
      "year_built": 2012,
      "community_type": "普通住宅",
      "property_management_company": null,
      "description": null,
      "created_by": "meida",
      "updated_by": "meida",
      "created_at": "2025-03-07 02:41:43",
      "updated_at": "2025-03-07 02:41:43"
    }
  },
  {
    "id": "B022C01GLA",
    "name": "胡玉美",
    "district": "安徽省安庆市宜秀区",
    "adcode": "340811",
    "location": [117.047555, 30.53748],
    "address": "黄土坑东路57号",
    "typecode": "120303|170000",
    "city": [],
    "item": {
      "community_name": "胡玉美宿舍",
      "region": "大观区",
      "city": "安庆",
      "state": "安徽省",
      "postal_code": "246000",
      "year_built": 2000,
      "community_type": "普通住宅",
      "property_management_company": null,
      "description": null,
      "created_by": "meida",
      "updated_by": "meida",
      "created_at": "2025-04-26 06:39:58",
      "updated_at": "2025-04-26 06:39:58"
    }
  },
  {
    "id": "B022C05S2J",
    "name": "舒乐小区",
    "district": "安徽省安庆市宜秀区",
    "adcode": "340811",
    "location": [117.056494, 30.542852],
    "address": "中兴大街132号",
    "typecode": "120302",
    "city": [],
    "item": {
      "community_name": "舒乐小区",
      "region": "大观区",
      "city": "安庆",
      "state": "安徽省",
      "postal_code": "246000",
      "year_built": 1996,
      "community_type": "普通住宅",
      "property_management_company": null,
      "description": null,
      "created_by": "meida",
      "updated_by": "meida",
      "created_at": "2025-06-25 08:48:35",
      "updated_at": "2025-06-25 08:48:35"
    }
  },
  {
    "id": "B0FFGY0JYM",
    "name": "舒园小区",
    "district": "安徽省安庆市宜秀区",
    "adcode": "340811",
    "location": [117.049741, 30.53909],
    "address": "黄土坑东路",
    "typecode": "120302",
    "city": [],
    "item": {
      "community_name": "舒园小区",
      "region": "大观区",
      "city": "安庆",
      "state": "安徽省",
      "postal_code": "246000",
      "year_built": null,
      "community_type": "普通住宅",
      "property_management_company": null,
      "description": "位于黄土坑华茂厂旁边",
      "created_by": "meida",
      "updated_by": "meida",
      "created_at": "2025-02-09 06:56:49",
      "updated_at": "2025-02-09 06:56:49"
    }
  },
  {
    "id": "B0FFF3V86J",
    "name": "舒欣苑",
    "district": "安徽省安庆市宜秀区",
    "adcode": "340811",
    "location": [117.058069, 30.541122],
    "address": "司空山路与竹园路交叉口西南200米",
    "typecode": "120302",
    "city": [],
    "item": {
      "community_name": "舒欣苑",
      "region": "宜秀区",
      "city": "安庆",
      "state": "安徽省",
      "postal_code": "246000",
      "year_built": 2017,
      "community_type": "住宅",
      "property_management_company": null,
      "description": null,
      "created_by": "meida",
      "updated_by": "meida",
      "created_at": "2024-10-26 02:46:34",
      "updated_at": "2024-10-26 02:46:34"
    }
  },
  {
    "id": "B0FFF04PMK",
    "name": "舒福苑",
    "district": "安徽省安庆市宜秀区",
    "adcode": "340811",
    "location": [117.058067, 30.542278],
    "address": "菱北街道科技园",
    "typecode": "120302",
    "city": [],
    "item": {
      "community_name": "舒福苑",
      "region": "宜秀区",
      "city": "安庆",
      "state": "安徽省",
      "postal_code": "246000",
      "year_built": 2013,
      "community_type": "普通住宅",
      "property_management_company": null,
      "description": null,
      "created_by": "meida",
      "updated_by": "meida",
      "created_at": "2025-05-08 07:14:23",
      "updated_at": "2025-05-08 07:14:23"
    }
  },
  {
    "id": "B0FFK7VOMA",
    "name": "高花花亭南村小区",
    "district": "安徽省安庆市大观区",
    "adcode": "340803",
    "location": [117.04604, 30.531406],
    "address": "集贤南路与石化四路交叉口东北260米",
    "typecode": "120302",
    "city": [],
    "item": {
      "community_name": "花亭南村",
      "region": "大观区",
      "city": "安庆",
      "state": "安徽省",
      "postal_code": "246000",
      "year_built": 1990,
      "community_type": "普通住宅",
      "property_management_company": null,
      "description": null,
      "created_by": "meida",
      "updated_by": "meida",
      "created_at": "2025-05-11 06:58:56",
      "updated_at": "2025-05-11 06:58:56"
    }
  },
  {
    "id": "B0FFF0733C",
    "name": "花亭西村",
    "district": "安徽省安庆市大观区",
    "adcode": "340803",
    "location": [117.043498, 30.530477],
    "address": "集贤路街道高花社区",
    "typecode": "120302",
    "city": [],
    "item": {
      "community_name": "花亭西村",
      "region": "大观区",
      "city": "安庆",
      "state": "安徽省",
      "postal_code": "246000",
      "year_built": 1990,
      "community_type": "普通住宅",
      "property_management_company": null,
      "description": null,
      "created_by": "meida",
      "updated_by": "meida",
      "created_at": "2025-05-07 09:13:41",
      "updated_at": "2025-05-07 09:13:41"
    }
  },
  {
    "id": "B0GRLDKRWF",
    "name": "苏宁悦城",
    "district": "安徽省安庆市迎江区",
    "adcode": "340802",
    "location": [117.101171, 30.511867],
    "address": "独秀大道与华中路交叉口西南180米",
    "typecode": "120302",
    "city": [],
    "item": {
      "community_name": "苏宁悦城",
      "region": "宜秀区",
      "city": "安庆",
      "state": "安徽省",
      "postal_code": "246000",
      "year_built": 2023,
      "community_type": "普通住宅",
      "property_management_company": null,
      "description": null,
      "created_by": "meida",
      "updated_by": "meida",
      "created_at": "2025-06-25 08:52:21",
      "updated_at": "2025-06-25 08:52:21"
    }
  },
  {
    "id": "B0FFK8FDYB",
    "name": "英德利商务花园",
    "district": "安徽省安庆市宜秀区",
    "adcode": "340811",
    "location": [117.064437, 30.571207],
    "address": "石塘湖路8号安庆国际汽车城车管所对面",
    "typecode": "120302",
    "city": [],
    "item": {
      "community_name": "英德利商务花园",
      "region": "大观区",
      "city": "安庆",
      "state": "安徽省",
      "postal_code": "246000",
      "year_built": null,
      "community_type": "商住两用",
      "property_management_company": null,
      "description": null,
      "created_by": "meida",
      "updated_by": "meida",
      "created_at": "2024-10-09 08:16:35",
      "updated_at": "2024-10-09 08:16:35"
    }
  },
  {
    "id": "B0FFKVGWCK",
    "name": "宜秀区荣庆商城",
    "district": "安徽省安庆市宜秀区",
    "adcode": "340811",
    "location": [117.06137, 30.534627],
    "address": "国华路与湖心北路交叉口东100米",
    "typecode": "060000",
    "city": [],
    "item": {
      "community_name": "荣庆商城",
      "region": "宜秀区",
      "city": "安庆",
      "state": "安徽省",
      "postal_code": "246000",
      "year_built": 1997,
      "community_type": "普通住宅",
      "property_management_company": null,
      "description": null,
      "created_by": "meida",
      "updated_by": "meida",
      "created_at": "2025-06-13 11:56:00",
      "updated_at": "2025-06-13 11:56:00"
    }
  },
  {
    "id": "B022C05S2E",
    "name": "菱建小区",
    "district": "安徽省安庆市宜秀区",
    "adcode": "340811",
    "location": [117.066335, 30.540033],
    "address": "同安路",
    "typecode": "120302",
    "city": [],
    "item": {
      "community_name": "菱建小区",
      "region": "宜秀区",
      "city": "安庆",
      "state": "安徽省",
      "postal_code": "246000",
      "year_built": 2007,
      "community_type": "普通住宅",
      "property_management_company": "虹城物业",
      "description": "半封闭小区   商品房",
      "created_by": "meida",
      "updated_by": "meida",
      "created_at": "2024-09-29 05:59:52",
      "updated_at": "2025-07-14 02:33:05"
    }
  },
  {
    "id": "B0FFF87E08",
    "name": "菱湖南路北二巷5号楼",
    "district": "安徽省安庆市大观区",
    "adcode": "340803",
    "location": [117.044267, 30.51549],
    "address": "干校小区西北侧80米",
    "typecode": "190403",
    "city": [],
    "item": {
      "community_name": "菱湖南路北二巷",
      "region": "大观区",
      "city": "安庆",
      "state": "安徽省",
      "postal_code": "246000",
      "year_built": 1993,
      "community_type": "普通住宅",
      "property_management_company": null,
      "description": null,
      "created_by": "meida",
      "updated_by": "meida",
      "created_at": "2025-04-26 08:35:31",
      "updated_at": "2025-04-26 08:35:31"
    }
  },
  {
    "id": "B022C00570",
    "name": "菱湖新村",
    "district": "安徽省安庆市大观区",
    "adcode": "340803",
    "location": [117.049114, 30.517366],
    "address": "纺织南路116号",
    "typecode": "120302",
    "city": [],
    "item": {
      "community_name": "菱湖新村",
      "region": "大观区",
      "city": "安庆",
      "state": "安徽省",
      "postal_code": "246000",
      "year_built": 1997,
      "community_type": "普通住宅",
      "property_management_company": null,
      "description": null,
      "created_by": "meida",
      "updated_by": "meida",
      "created_at": "2024-11-05 01:36:13",
      "updated_at": "2024-11-05 01:36:13"
    }
  },
  {
    "id": "B0IA3AOZWB",
    "name": "蓬莱街",
    "district": "安徽省安庆市大观区",
    "adcode": "340803",
    "location": [117.037124, 30.504558],
    "address": [],
    "typecode": "190301",
    "city": [],
    "item": {
      "community_name": "蓬莱街",
      "region": "大观区",
      "city": "安庆",
      "state": "安徽省",
      "postal_code": "246000",
      "year_built": 1990,
      "community_type": "普通住宅",
      "property_management_company": null,
      "description": null,
      "created_by": "meida",
      "updated_by": "meida",
      "created_at": "2025-04-26 05:20:27",
      "updated_at": "2025-04-26 05:20:27"
    }
  },
  {
    "id": "B0FFKXKSB9",
    "name": "融创时代宜城",
    "district": "安徽省安庆市宜秀区",
    "adcode": "340811",
    "location": [117.101151, 30.550678],
    "address": "独秀大道与白泽路交叉口",
    "typecode": "120302",
    "city": [],
    "item": {
      "community_name": "融创时代宜城",
      "region": "宜秀区",
      "city": "安庆",
      "state": "安徽省",
      "postal_code": "246000",
      "year_built": 2021,
      "community_type": "住宅",
      "property_management_company": null,
      "description": "高档小区   环境好",
      "created_by": "meida",
      "updated_by": "meida",
      "created_at": "2024-09-27 02:33:01",
      "updated_at": "2025-07-12 09:49:18"
    }
  },
  {
    "id": "B0FFFZBXTF",
    "name": "西湖绿洲城三期",
    "district": "安徽省安庆市宜秀区",
    "adcode": "340811",
    "location": [117.067928, 30.551196],
    "address": "西湖绿洲城双峰阁3幢",
    "typecode": "120302",
    "city": [],
    "item": {
      "community_name": "西湖绿洲城三期",
      "region": "宜秀区",
      "city": "安庆",
      "state": "安徽省",
      "postal_code": "246000",
      "year_built": 2013,
      "community_type": "普通住宅",
      "property_management_company": null,
      "description": null,
      "created_by": "meida",
      "updated_by": "meida",
      "created_at": "2025-06-14 11:46:34",
      "updated_at": "2025-06-14 11:46:34"
    }
  },
  {
    "id": "B0FFGJAKMK",
    "name": "西湖绿洲城二期",
    "district": "安徽省安庆市宜秀区",
    "adcode": "340811",
    "location": [117.069509, 30.55345],
    "address": "龙腾路",
    "typecode": "120302",
    "city": [],
    "item": {
      "community_name": "西湖绿洲城二期",
      "region": "宜秀区",
      "city": "安庆",
      "state": "安徽省",
      "postal_code": "246000",
      "year_built": 2013,
      "community_type": "普通住宅",
      "property_management_company": "",
      "description": "封闭小区   环境好",
      "created_by": "meida",
      "updated_by": "meida",
      "created_at": "2024-10-11 02:16:03",
      "updated_at": "2024-10-11 02:16:03"
    }
  },
  {
    "id": "B0FFK883PF",
    "name": "西湖绿洲城五期",
    "district": "安徽省安庆市宜秀区",
    "adcode": "340811",
    "location": [117.072804, 30.551032],
    "address": "民生路2号",
    "typecode": "120302",
    "city": [],
    "item": {
      "community_name": "西湖绿洲城五期",
      "region": "宜秀区",
      "city": "安庆",
      "state": "安徽省",
      "postal_code": "246000",
      "year_built": 2017,
      "community_type": "普通住宅",
      "property_management_company": null,
      "description": null,
      "created_by": "meida",
      "updated_by": "meida",
      "created_at": "2024-11-14 02:49:25",
      "updated_at": "2024-11-14 02:49:25"
    }
  },
  {
    "id": "B0FFHPILS1",
    "name": "西湖绿洲城四期",
    "district": "安徽省安庆市宜秀区",
    "adcode": "340811",
    "location": [117.067217, 30.555382],
    "address": "民生路16号",
    "typecode": "120302",
    "city": [],
    "item": {
      "community_name": "西湖绿洲城四期",
      "region": "宜秀区",
      "city": "安庆",
      "state": "安徽省",
      "postal_code": "246000",
      "year_built": 2010,
      "community_type": "普通住宅",
      "property_management_company": null,
      "description": null,
      "created_by": "meida",
      "updated_by": "meida",
      "created_at": "2024-10-26 02:52:17",
      "updated_at": "2024-10-26 02:52:17"
    }
  },
  {
    "id": "B0JGL5G2OZ",
    "name": "西湖绿洲城一期",
    "district": "安徽省安庆市宜秀区",
    "adcode": "340811",
    "location": [117.071132, 30.550748],
    "address": "龙腾路与九塘路交叉口南260米",
    "typecode": "120302",
    "city": [],
    "item": {
      "community_name": "西湖绿洲成一期",
      "region": "宜秀区",
      "city": "安庆",
      "state": "安徽省",
      "postal_code": "246000",
      "year_built": 2007,
      "community_type": "普通住宅",
      "property_management_company": null,
      "description": null,
      "created_by": "meida",
      "updated_by": "meida",
      "created_at": "2024-12-07 03:23:39",
      "updated_at": "2024-12-07 03:23:39"
    }
  },
  {
    "id": "B0FFK7VF9V",
    "name": "谐水湾迎江府",
    "district": "安徽省安庆市迎江区",
    "adcode": "340802",
    "location": [117.061454, 30.503176],
    "address": "沿江东路15号",
    "typecode": "120302",
    "city": [],
    "item": {
      "community_name": "谐水湾。迎江府",
      "region": "迎江区",
      "city": "安庆",
      "state": "安徽省",
      "postal_code": "246000",
      "year_built": 2018,
      "community_type": "普通住宅",
      "property_management_company": null,
      "description": null,
      "created_by": "meida",
      "updated_by": "meida",
      "created_at": "2025-05-24 08:17:16",
      "updated_at": "2025-05-24 08:17:16"
    }
  },
  {
    "id": "B0FFL0FUL6",
    "name": "谐水湾1期",
    "district": "安徽省安庆市迎江区",
    "adcode": "340802",
    "location": [117.065583, 30.503312],
    "address": "人民东路77附近",
    "typecode": "120302",
    "city": [],
    "item": {
      "community_name": "谐水湾一期",
      "region": "迎江区",
      "city": "安庆",
      "state": "安徽省",
      "postal_code": "246000",
      "year_built": 2006,
      "community_type": "普通住宅",
      "property_management_company": null,
      "description": null,
      "created_by": "meida",
      "updated_by": "meida",
      "created_at": "2025-06-03 02:02:38",
      "updated_at": "2025-06-03 02:02:38"
    }
  },
  {
    "id": "B0FFL8E5WB",
    "name": "迎宾小区北苑-东区(北门)",
    "district": "安徽省安庆市宜秀区",
    "adcode": "340811",
    "location": [117.052286, 30.553216],
    "address": "民生路迎宾小区",
    "typecode": "991400",
    "city": [],
    "item": {
      "community_name": "迎宾小区北苑",
      "region": "大观区",
      "city": "安庆",
      "state": "安徽省",
      "postal_code": "246000",
      "year_built": 2010,
      "community_type": "普通住宅",
      "property_management_company": null,
      "description": null,
      "created_by": "meida",
      "updated_by": "meida",
      "created_at": "2025-04-24 08:21:17",
      "updated_at": "2025-05-08 07:28:30"
    }
  },
  {
    "id": "B0GRXY8LDS",
    "name": "菜鸟驿站(安庆迎宾小区古树南苑9号店)",
    "district": "安徽省安庆市宜秀区",
    "adcode": "340811",
    "location": [117.049002, 30.553177],
    "address": "迎宾小区古树南苑菜市场9号门面66栋",
    "typecode": "070500",
    "city": [],
    "item": {
      "community_name": "迎宾小区南苑",
      "region": "大观区",
      "city": "安庆",
      "state": "安徽省",
      "postal_code": "246000",
      "year_built": 2005,
      "community_type": "普通住宅",
      "property_management_company": null,
      "description": "还建房",
      "created_by": "meida",
      "updated_by": "meida",
      "created_at": "2024-10-25 03:06:12",
      "updated_at": "2024-10-25 03:06:12"
    }
  },
  {
    "id": "B0L6Y1O9WQ",
    "name": "迎宾路",
    "district": "安徽省安庆市宜秀区",
    "adcode": "340811",
    "location": [117.055645, 30.550637],
    "address": [],
    "typecode": "190301",
    "city": [],
    "item": {
      "community_name": "迎宾路",
      "region": "宜秀区",
      "city": "安庆",
      "state": "安徽省",
      "postal_code": "246000",
      "year_built": 1993,
      "community_type": "普通住宅",
      "property_management_company": null,
      "description": null,
      "created_by": "meida",
      "updated_by": "meida",
      "created_at": "2025-07-08 10:59:14",
      "updated_at": "2025-07-08 10:59:14"
    }
  },
  {
    "id": "BV10176553",
    "name": "迎春花苑(公交站)",
    "district": "安徽省安庆市宜秀区",
    "adcode": "340811",
    "location": [117.074236, 30.55499],
    "address": "28路;305路(机场专线);32路;6路",
    "typecode": "150700",
    "city": [],
    "item": {
      "community_name": "迎春花苑",
      "region": "宜秀区",
      "city": "安庆",
      "state": "安徽省",
      "postal_code": "246000",
      "year_built": 2009,
      "community_type": "普通住宅",
      "property_management_company": null,
      "description": null,
      "created_by": "meida",
      "updated_by": "meida",
      "created_at": "2025-05-07 01:44:23",
      "updated_at": "2025-05-07 01:44:23"
    }
  },
  {
    "id": "B0FFGAATLT",
    "name": "迎春颐和城",
    "district": "安徽省安庆市宜秀区",
    "adcode": "340811",
    "location": [117.096757, 30.53789],
    "address": "大桥街道天柱山东路",
    "typecode": "120302",
    "city": [],
    "item": {
      "community_name": "迎春颐和城",
      "region": "宜秀区",
      "city": "安庆",
      "state": "安徽省",
      "postal_code": "246000",
      "year_built": null,
      "community_type": "普通住宅",
      "property_management_company": null,
      "description": null,
      "created_by": "meida",
      "updated_by": "meida",
      "created_at": "2025-04-24 08:17:44",
      "updated_at": "2025-04-24 08:17:44"
    }
  },
  {
    "id": "B0FFF2LEDW",
    "name": "安庆碧桂园迎江御墅",
    "district": "安徽省安庆市迎江区",
    "adcode": "340802",
    "location": [117.13134, 30.516213],
    "address": "华中东路1088号",
    "typecode": "120300",
    "city": [],
    "item": {
      "community_name": "迎江御墅",
      "region": "迎江区",
      "city": "安庆",
      "state": "安徽省",
      "postal_code": "246000",
      "year_built": 2013,
      "community_type": "普通住宅",
      "property_management_company": "碧桂园",
      "description": null,
      "created_by": "meida",
      "updated_by": "meida",
      "created_at": "2025-04-11 02:28:59",
      "updated_at": "2025-04-11 02:28:59"
    }
  },
  {
    "id": "B0KBN9IREF",
    "name": "近圣街",
    "district": "安徽省安庆市大观区",
    "adcode": "340803",
    "location": [117.039563, 30.509985],
    "address": [],
    "typecode": "190301",
    "city": [],
    "item": {
      "community_name": "近圣街",
      "region": "大观区",
      "city": "安庆",
      "state": "安徽省",
      "postal_code": "246000",
      "year_built": 1988,
      "community_type": "普通住宅",
      "property_management_company": null,
      "description": null,
      "created_by": "meida",
      "updated_by": "meida",
      "created_at": "2025-05-11 07:38:40",
      "updated_at": "2025-07-14 02:37:50"
    }
  },
  {
    "id": "B022C0SARF",
    "name": "鑫居·逸泉湾",
    "district": "安徽省安庆市宜秀区",
    "adcode": "340811",
    "location": [117.067279, 30.542838],
    "address": "同安路与雷池路交汇处",
    "typecode": "120302",
    "city": [],
    "item": {
      "community_name": "逸泉湾",
      "region": "宜秀区",
      "city": "安庆",
      "state": "安徽省",
      "postal_code": "246000",
      "year_built": null,
      "community_type": "普通住宅",
      "property_management_company": null,
      "description": null,
      "created_by": "meida",
      "updated_by": "meida",
      "created_at": "2024-11-23 06:07:55",
      "updated_at": "2025-03-03 02:16:06"
    }
  },
  {
    "id": "B0FFMFL8BX",
    "name": "逸龙府",
    "district": "安徽省安庆市宜秀区",
    "adcode": "340811",
    "location": [117.051608, 30.546994],
    "address": "十同路",
    "typecode": "120302",
    "city": [],
    "item": {
      "community_name": "逸龙府",
      "region": "大观区",
      "city": "安庆",
      "state": "安徽省",
      "postal_code": "246000",
      "year_built": null,
      "community_type": "普通住宅",
      "property_management_company": null,
      "description": null,
      "created_by": "meida",
      "updated_by": "meida",
      "created_at": "2025-04-23 05:16:12",
      "updated_at": "2025-04-23 05:16:12"
    }
  },
  {
    "id": "B0H1PYKAMU",
    "name": "金三角",
    "district": "安徽省安庆市桐城市",
    "adcode": "340881",
    "location": [116.972446, 31.068541],
    "address": [],
    "typecode": "190109",
    "city": [],
    "item": {
      "community_name": "金三角",
      "region": "宜秀区",
      "city": "安庆",
      "state": "安徽省",
      "postal_code": "246000",
      "year_built": 2003,
      "community_type": "普通住宅",
      "property_management_company": null,
      "description": null,
      "created_by": "meida",
      "updated_by": "meida",
      "created_at": "2025-04-25 06:57:46",
      "updated_at": "2025-04-25 06:57:46"
    }
  },
  {
    "id": "B0HRDUWSBD",
    "name": "金地邦泰城市星光",
    "district": "安徽省安庆市宜秀区",
    "adcode": "340811",
    "location": [117.103547, 30.550851],
    "address": "独秀大道与九塘东路交口向东300米",
    "typecode": "120300",
    "city": [],
    "item": {
      "community_name": "金地城市星光",
      "region": "宜秀区",
      "city": "安庆",
      "state": "安徽省",
      "postal_code": "246000",
      "year_built": 2022,
      "community_type": "普通住宅",
      "property_management_company": null,
      "description": null,
      "created_by": "meida",
      "updated_by": "meida",
      "created_at": "2025-05-11 07:34:08",
      "updated_at": "2025-05-11 07:34:08"
    }
  },
  {
    "id": "B0J2XKBCQ4",
    "name": "安庆金大地天元府3栋",
    "district": "安徽省安庆市迎江区",
    "adcode": "340802",
    "location": [117.125247, 30.534927],
    "address": "老峰镇辉煌路",
    "typecode": "190403",
    "city": [],
    "item": {
      "community_name": "金大地天元府",
      "region": "迎江区",
      "city": "安庆",
      "state": "安徽省",
      "postal_code": "246000",
      "year_built": 2023,
      "community_type": "普通住宅",
      "property_management_company": null,
      "description": null,
      "created_by": "meida",
      "updated_by": "meida",
      "created_at": "2025-04-27 08:11:15",
      "updated_at": "2025-04-27 08:11:15"
    }
  },
  {
    "id": "B022C05W8M",
    "name": "金桂丽园",
    "district": "安徽省安庆市宜秀区",
    "adcode": "340811",
    "location": [117.082354, 30.535362],
    "address": "元山路27号",
    "typecode": "120302",
    "city": [],
    "item": {
      "community_name": "金桂丽园",
      "region": "宜秀区",
      "city": "安庆",
      "state": "安徽省",
      "postal_code": "246000",
      "year_built": 2010,
      "community_type": "普通住宅",
      "property_management_company": null,
      "description": null,
      "created_by": "meida",
      "updated_by": "meida",
      "created_at": "2024-12-09 10:23:22",
      "updated_at": "2024-12-09 10:23:22"
    }
  },
  {
    "id": "B022C05W8X",
    "name": "鑫园小区",
    "district": "安徽省安庆市宜秀区",
    "adcode": "340811",
    "location": [117.057688, 30.550644],
    "address": "迎宾西路与中兴大道交叉口东160米",
    "typecode": "120302",
    "city": [],
    "item": {
      "community_name": "鑫园小区",
      "region": "宜秀区",
      "city": "安庆",
      "state": "安徽省",
      "postal_code": "246000",
      "year_built": 2003,
      "community_type": "普通住宅",
      "property_management_company": null,
      "description": null,
      "created_by": "meida",
      "updated_by": "钱平香",
      "created_at": "2024-10-26 07:09:50",
      "updated_at": "2025-07-10 08:18:10"
    }
  },
  {
    "id": "B0FFIPIXGF",
    "name": "钱牌楼",
    "district": "安徽省安庆市迎江区",
    "adcode": "340802",
    "location": [117.045039, 30.503724],
    "address": "建设路与天后宫街交叉口西40米",
    "typecode": "120000",
    "city": [],
    "item": {
      "community_name": "钱牌楼",
      "region": "迎江区",
      "city": "安庆",
      "state": "安徽省",
      "postal_code": "246000",
      "year_built": 1997,
      "community_type": "普通住宅",
      "property_management_company": null,
      "description": null,
      "created_by": "meida",
      "updated_by": "meida",
      "created_at": "2025-05-17 01:58:41",
      "updated_at": "2025-07-06 07:31:20"
    }
  },
  {
    "id": "B0FFFOPQJN",
    "name": "银都商城",
    "district": "安徽省安庆市宜秀区",
    "adcode": "340811",
    "location": [117.062153, 30.546388],
    "address": "宜秀区开发区雷池路16号",
    "typecode": "060000",
    "city": [],
    "item": {
      "community_name": "银都商城",
      "region": "宜秀区",
      "city": "安庆",
      "state": "安徽省",
      "postal_code": "246000",
      "year_built": 2000,
      "community_type": "普通住宅",
      "property_management_company": null,
      "description": null,
      "created_by": "meida",
      "updated_by": "meida",
      "created_at": "2024-10-26 10:00:17",
      "updated_at": "2024-10-26 10:00:17"
    }
  },
  {
    "id": "B022C0083A",
    "name": "银馨花园",
    "district": "安徽省安庆市宜秀区",
    "adcode": "340811",
    "location": [117.066086, 30.543894],
    "address": "浮山路39号",
    "typecode": "120302",
    "city": [],
    "item": {
      "community_name": "银馨花园",
      "region": "宜秀区",
      "city": "安庆",
      "state": "安徽省",
      "postal_code": "246000",
      "year_built": 2003,
      "community_type": "普通住宅",
      "property_management_company": null,
      "description": null,
      "created_by": "meida",
      "updated_by": "meida",
      "created_at": "2024-12-03 06:08:50",
      "updated_at": "2024-12-03 06:08:50"
    }
  },
  {
    "id": "B0FFGQDZLU",
    "name": "锡林街",
    "district": "内蒙古自治区锡林郭勒盟二连浩特市",
    "adcode": "152501",
    "location": [111.97635, 43.648646],
    "address": [],
    "typecode": "190301",
    "city": [],
    "item": {
      "community_name": "锡林街",
      "region": "大观区",
      "city": "安庆",
      "state": "安徽省",
      "postal_code": "246000",
      "year_built": 1992,
      "community_type": "普通住宅",
      "property_management_company": null,
      "description": null,
      "created_by": "meida",
      "updated_by": "meida",
      "created_at": "2024-11-08 08:01:13",
      "updated_at": "2024-11-08 08:01:13"
    }
  },
  {
    "id": "B0FFGWFA3M",
    "name": "锡麟街",
    "district": "安徽省安庆市迎江区",
    "adcode": "340802",
    "location": [117.048182, 30.506666],
    "address": [],
    "typecode": "190301",
    "city": [],
    "item": {
      "community_name": "锡麟街",
      "region": "迎江区",
      "city": "安庆",
      "state": "安徽省",
      "postal_code": "246000",
      "year_built": 1990,
      "community_type": "普通住宅",
      "property_management_company": null,
      "description": null,
      "created_by": "meida",
      "updated_by": "meida",
      "created_at": "2025-01-02 08:05:28",
      "updated_at": "2025-01-02 08:05:28"
    }
  },
  {
    "id": "B022C05S3A",
    "name": "锦绣人家(光彩东七街)",
    "district": "安徽省安庆市宜秀区",
    "adcode": "340811",
    "location": [117.074946, 30.535295],
    "address": "回祥东路3号",
    "typecode": "120302",
    "city": [],
    "item": {
      "community_name": "锦绣人家",
      "region": "宜秀区",
      "city": "安庆",
      "state": "安徽省",
      "postal_code": "246000",
      "year_built": null,
      "community_type": "普通住宅",
      "property_management_company": null,
      "description": null,
      "created_by": "meida",
      "updated_by": "meida",
      "created_at": "2025-02-22 02:21:23",
      "updated_at": "2025-02-22 02:21:23"
    }
  },
  {
    "id": "B0FFK7YX61",
    "name": "长宁小区",
    "district": "安徽省安庆市迎江区",
    "adcode": "340802",
    "location": [117.212571, 30.56892],
    "address": "安风路与春台路交叉口西160米",
    "typecode": "120302",
    "city": [],
    "item": {
      "community_name": "长宁小区 ",
      "region": "宜秀区",
      "city": "安庆",
      "state": "安徽省",
      "postal_code": "246000",
      "year_built": 2022,
      "community_type": "普通住宅",
      "property_management_company": null,
      "description": "长风乡",
      "created_by": "meida",
      "updated_by": "meida",
      "created_at": "2025-07-08 06:46:13",
      "updated_at": "2025-07-08 06:46:13"
    }
  },
  {
    "id": "B0JGL5GA2S",
    "name": "阳光花园一期",
    "district": "安徽省安庆市迎江区",
    "adcode": "340802",
    "location": [117.056707, 30.503407],
    "address": "湖心南路与杨家山街交叉口东100米",
    "typecode": "120302",
    "city": [],
    "item": {
      "community_name": "阳光花园一期",
      "region": "迎江区",
      "city": "安庆",
      "state": "安徽省",
      "postal_code": "246000",
      "year_built": 2009,
      "community_type": "普通住宅",
      "property_management_company": null,
      "description": null,
      "created_by": "meida",
      "updated_by": "meida",
      "created_at": "2025-05-21 01:34:13",
      "updated_at": "2025-05-21 01:34:13"
    }
  },
  {
    "id": "B0L6DAP14J",
    "name": "集贤北苑",
    "district": "安徽省安庆市宜秀区",
    "adcode": "340811",
    "location": [117.026509, 30.551992],
    "address": "集贤北路与显伟路交叉口东北80米",
    "typecode": "120302",
    "city": [],
    "item": {
      "community_name": "集贤北苑",
      "region": "大观区",
      "city": "安庆",
      "state": "安徽省",
      "postal_code": "246000",
      "year_built": 2004,
      "community_type": "普通住宅",
      "property_management_company": null,
      "description": null,
      "created_by": "meida",
      "updated_by": "meida",
      "created_at": "2025-06-03 01:52:23",
      "updated_at": "2025-06-03 01:52:23"
    }
  },
  {
    "id": "B022C0RYOU",
    "name": "雨润中央新城",
    "district": "安徽省安庆市迎江区",
    "adcode": "340802",
    "location": [117.09809, 30.520062],
    "address": "皖江大道39号",
    "typecode": "120302",
    "city": [],
    "item": {
      "community_name": "雨润中央新城二期",
      "region": "迎江区",
      "city": "安庆",
      "state": "安徽省",
      "postal_code": "246000",
      "year_built": 2009,
      "community_type": "普通住宅",
      "property_management_company": null,
      "description": null,
      "created_by": "meida",
      "updated_by": "meida",
      "created_at": "2025-06-15 11:09:58",
      "updated_at": "2025-06-15 11:09:58"
    }
  },
  {
    "id": "B0FFG04DFT",
    "name": "青年新村",
    "district": "安徽省安庆市大观区",
    "adcode": "340803",
    "location": [117.035702, 30.514203],
    "address": "德宽路街道德宽路",
    "typecode": "120302",
    "city": [],
    "item": {
      "community_name": "青年新村",
      "region": "大观区",
      "city": "安庆",
      "state": "安徽省",
      "postal_code": "246000",
      "year_built": 2008,
      "community_type": "普通住宅",
      "property_management_company": null,
      "description": null,
      "created_by": "meida",
      "updated_by": "meida",
      "created_at": "2025-07-04 11:45:01",
      "updated_at": "2025-07-04 11:45:01"
    }
  },
  {
    "id": "B0FFKW33D9",
    "name": "顺安北苑",
    "district": "安徽省安庆市迎江区",
    "adcode": "340802",
    "location": [117.115311, 30.519649],
    "address": "顺安路与育才路交叉口东北240米",
    "typecode": "120302",
    "city": [],
    "item": {
      "community_name": "顺安北苑",
      "region": "迎江区",
      "city": "安庆",
      "state": "安徽省",
      "postal_code": "246000",
      "year_built": 2019,
      "community_type": "普通住宅",
      "property_management_company": null,
      "description": "本小区是还建房",
      "created_by": "meida",
      "updated_by": "meida",
      "created_at": "2024-12-19 08:08:16",
      "updated_at": "2025-02-05 03:24:43"
    }
  },
  {
    "id": "B022C0RL27",
    "name": "领尚人家",
    "district": "安徽省安庆市大观区",
    "adcode": "340803",
    "location": [117.038453, 30.525213],
    "address": [],
    "typecode": "120302",
    "city": [],
    "item": {
      "community_name": "领尚人家",
      "region": "大观区",
      "city": "安庆",
      "state": "安徽省",
      "postal_code": "246000",
      "year_built": 2003,
      "community_type": "普通住宅",
      "property_management_company": null,
      "description": null,
      "created_by": "meida",
      "updated_by": "meida",
      "created_at": "2025-05-15 09:06:29",
      "updated_at": "2025-05-15 09:06:29"
    }
  },
  {
    "id": "B022C05XAR",
    "name": "香樟里·那水岸",
    "district": "安徽省安庆市宜秀区",
    "adcode": "340811",
    "location": [117.05917, 30.535431],
    "address": "菱北街道菱湖北路13号",
    "typecode": "120302",
    "city": [],
    "item": {
      "community_name": "香樟里",
      "region": "宜秀区",
      "city": "安庆",
      "state": "安徽省",
      "postal_code": "246000",
      "year_built": 2008,
      "community_type": "普通住宅",
      "property_management_company": null,
      "description": null,
      "created_by": "meida",
      "updated_by": "meida",
      "created_at": "2025-01-19 02:58:33",
      "updated_at": "2025-01-19 02:58:33"
    }
  },
  {
    "id": "B022C05VQ5",
    "name": "雨润香水百合",
    "district": "安徽省安庆市迎江区",
    "adcode": "340802",
    "location": [117.087108, 30.518215],
    "address": "皖江大道23号",
    "typecode": "120302",
    "city": [],
    "item": {
      "community_name": "香水百合",
      "region": "迎江区",
      "city": "安庆",
      "state": "安徽省",
      "postal_code": "246000",
      "year_built": 2010,
      "community_type": "普通住宅",
      "property_management_company": null,
      "description": null,
      "created_by": "meida",
      "updated_by": "meida",
      "created_at": "2025-05-07 01:34:07",
      "updated_at": "2025-05-07 01:34:07"
    }
  },
  {
    "id": "B022C02XQ6",
    "name": "马家岭",
    "district": "安徽省安庆市潜山市",
    "adcode": "340882",
    "location": [116.591825, 30.950949],
    "address": [],
    "typecode": "190203",
    "city": [],
    "item": {
      "community_name": "马家岭",
      "region": "大观区",
      "city": "安庆",
      "state": "安徽省",
      "postal_code": "246000",
      "year_built": 1990,
      "community_type": "普通住宅",
      "property_management_company": null,
      "description": null,
      "created_by": "meida",
      "updated_by": "meida",
      "created_at": "2025-04-11 02:22:29",
      "updated_at": "2025-04-11 02:22:29"
    }
  },
  {
    "id": "B0FFGQCNRR",
    "name": "高琦巷",
    "district": "安徽省安庆市大观区",
    "adcode": "340803",
    "location": [117.038917, 30.50965],
    "address": [],
    "typecode": "190301",
    "city": [],
    "item": {
      "community_name": "高崎巷",
      "region": "宜秀区",
      "city": "安庆",
      "state": "安徽省",
      "postal_code": "246000",
      "year_built": 1993,
      "community_type": "普通住宅",
      "property_management_company": null,
      "description": null,
      "created_by": "meida",
      "updated_by": "meida",
      "created_at": "2025-07-06 07:27:26",
      "updated_at": "2025-07-06 07:27:26"
    }
  },
  {
    "id": "B0FFJMORGS",
    "name": "高速时代公馆",
    "district": "安徽省安庆市宜秀区",
    "adcode": "340811",
    "location": [117.097984, 30.554607],
    "address": "中山大道与独秀大道交叉口",
    "typecode": "120302",
    "city": [],
    "item": {
      "community_name": "高速时代公馆",
      "region": "宜秀区",
      "city": "安庆",
      "state": "安徽省",
      "postal_code": "246000",
      "year_built": null,
      "community_type": "普通住宅",
      "property_management_company": null,
      "description": null,
      "created_by": "meida",
      "updated_by": "meida",
      "created_at": "2025-05-15 08:54:44",
      "updated_at": "2025-05-15 08:54:44"
    }
  },
  {
    "id": "B0G0G1L9K3",
    "name": "高速菱湖公馆",
    "district": "安徽省安庆市迎江区",
    "adcode": "340802",
    "location": [117.070166, 30.512213],
    "address": "宜光东路与菱湖南路交叉口东南180米",
    "typecode": "120302",
    "city": [],
    "item": {
      "community_name": "高速菱湖公馆",
      "region": "迎江区",
      "city": "安庆",
      "state": "安徽省",
      "postal_code": "246000",
      "year_built": 2022,
      "community_type": "普通住宅",
      "property_management_company": null,
      "description": null,
      "created_by": "meida",
      "updated_by": "meida",
      "created_at": "2025-05-07 11:18:48",
      "updated_at": "2025-05-07 11:18:48"
    }
  },
  {
    "id": "B022C0RL28",
    "name": "龙井小区",
    "district": "安徽省安庆市大观区",
    "adcode": "340803",
    "location": [117.039478, 30.520244],
    "address": "蔡山路43号",
    "typecode": "120302",
    "city": [],
    "item": {
      "community_name": "龙井小区",
      "region": "大观区",
      "city": "安庆",
      "state": "安徽省",
      "postal_code": "246000",
      "year_built": 2003,
      "community_type": "普通住宅",
      "property_management_company": null,
      "description": null,
      "created_by": "meida",
      "updated_by": "meida",
      "created_at": "2025-07-03 07:38:53",
      "updated_at": "2025-07-03 07:38:53"
    }
  },
  {
    "id": "B0FFJIDL0X",
    "name": "龙城·天悦",
    "district": "安徽省安庆市宜秀区",
    "adcode": "340811",
    "location": [116.987581, 30.607194],
    "address": "稼先大道与集贤北路交叉口",
    "typecode": "120302",
    "city": [],
    "item": {
      "community_name": "龙城天悦",
      "region": "宜秀区",
      "city": "安庆",
      "state": "安徽省",
      "postal_code": "246000",
      "year_built": 2017,
      "community_type": "普通住宅",
      "property_management_company": null,
      "description": null,
      "created_by": "meida",
      "updated_by": "meida",
      "created_at": "2025-04-23 05:07:27",
      "updated_at": "2025-04-23 05:07:27"
    }
  },
  {
    "id": "B022C05S20",
    "name": "龙山公寓小区",
    "district": "安徽省安庆市迎江区",
    "adcode": "340802",
    "location": [117.040908, 30.509089],
    "address": "孝肃路",
    "typecode": "120302",
    "city": [],
    "item": {
      "community_name": "龙山公寓",
      "region": "大观区",
      "city": "安庆",
      "state": "安徽省",
      "postal_code": "246000",
      "year_built": 1995,
      "community_type": "普通住宅",
      "property_management_company": null,
      "description": null,
      "created_by": "meida",
      "updated_by": "meida",
      "created_at": "2025-07-14 02:12:22",
      "updated_at": "2025-07-14 02:12:22"
    }
  },
  {
    "id": "B0FFH5LLZM",
    "name": "龙山花苑",
    "district": "安徽省安庆市宜秀区",
    "adcode": "340811",
    "location": [116.978948, 30.617286],
    "address": "大龙山镇中心村",
    "typecode": "120302",
    "city": [],
    "item": {
      "community_name": "龙山花苑",
      "region": "宜秀区",
      "city": "安庆",
      "state": "安徽省",
      "postal_code": "246000",
      "year_built": null,
      "community_type": "普通住宅",
      "property_management_company": null,
      "description": "大龙山一中旁   还建房",
      "created_by": "meida",
      "updated_by": "meida",
      "created_at": "2024-09-30 05:02:16",
      "updated_at": "2024-09-30 05:02:16"
    }
  },
  {
    "id": "B0JA37TBW0",
    "name": "龙门口小区",
    "district": "安徽省安庆市大观区",
    "adcode": "340803",
    "location": [117.036192, 30.50682],
    "address": "龙门口街141号",
    "typecode": "190403",
    "city": [],
    "item": {
      "community_name": "龙门口小区",
      "region": "大观区",
      "city": "安庆",
      "state": "安徽省",
      "postal_code": "246000",
      "year_built": null,
      "community_type": "普通住宅",
      "property_management_company": null,
      "description": null,
      "created_by": "meida",
      "updated_by": "meida",
      "created_at": "2025-04-23 06:30:31",
      "updated_at": "2025-04-23 06:30:31"
    }
  },
  {
    "id": "B022C02V2I",
    "name": "龙门小区",
    "district": "安徽省安庆市大观区",
    "adcode": "340803",
    "location": [117.035885, 30.506392],
    "address": "龙门口街141号",
    "typecode": "120302",
    "city": [],
    "item": {
      "community_name": "龙门小区",
      "region": "大观区",
      "city": "安庆",
      "state": "安徽省",
      "postal_code": "246000",
      "year_built": 2000,
      "community_type": "普通住宅",
      "property_management_company": null,
      "description": "7中旁边",
      "created_by": "meida",
      "updated_by": "meida",
      "created_at": "2025-04-23 06:07:04",
      "updated_at": "2025-04-23 06:07:04"
    }
  }
]
